time,LATITUDE_m,ALTITUDE_m,LONGITUDE_m,vx,VSI_ms,vz,qx,qy,qz,qw,wx,wy,wz,fx_global,fy_global,fz_global,alpha_DEG,beta_DEG,pitch_demand,roll_demand,yaw_demand,pitch_demand_attained,roll_demand_attained,yaw_demand_attained,thrust_setting_demand,thrust_attained,CL,CD,CL_CD_ratio,CS,nx,nz,ny,CM_roll_from_aero_forces,CM_yaw_from_aero_forces,CM_pitch_from_aero_forces,CM_roll_from_control,CM_yaw_from_control,CM_pitch_from_control,CM_roll_from_aero_stiffness,CM_yaw_from_aero_stiffness,CM_pitch_from_aero_stiffness,CM_roll_from_aero_damping,CM_yaw_from_aero_damping,CM_pitch_from_aero_damping,q_pitch_rate,p_roll_rate,r_yaw_rate,TAS,EAS,Mach,dynamic_pressure
3.001,-69.3,1991.063,0.0,79.536,-7.886,0.0,0.0,0.0,-0.035,0.999,0.0,0.0,-0.067,166.957,20922.58,0.0,1.656,-0.0,0.0,0.0,0.0,-0.058,0.0,0.0,0.0,0.0,0.426,0.039,11.025,0.0,-0.037,0.608,0.0,0.0,0.0,0.0,0.0,0.0,-0.03,0.0,0.0,-0.007,0.0,0.0,0.0,-0.067,0.0,0.0,79.923,72.477,0.24,3217.439
3.018,-67.963,1990.93,0.0,79.537,-7.951,0.0,0.0,0.0,-0.036,0.999,0.0,0.0,-0.068,179.925,20838.973,0.0,1.633,-0.0,0.0,0.0,0.0,-0.058,0.0,0.0,0.0,0.0,0.424,0.038,11.007,0.0,-0.038,0.606,0.0,0.0,0.0,0.0,0.0,0.0,-0.03,0.0,0.0,-0.007,0.0,0.0,0.0,-0.068,0.0,0.0,79.93,72.484,0.24,3218.059
3.034,-66.643,1990.797,0.0,79.538,-8.015,0.0,0.0,0.0,-0.036,0.999,0.0,0.0,-0.068,192.908,20758.121,0.0,1.61,-0.0,0.0,0.0,0.0,-0.058,0.0,0.0,0.0,0.0,0.423,0.038,10.99,0.0,-0.038,0.604,0.0,0.0,0.0,0.0,0.0,0.0,-0.03,0.0,0.0,-0.007,0.0,0.0,0.0,-0.068,0.0,0.0,79.938,72.491,0.24,3218.693
3.051,-65.323,1990.664,0.0,79.539,-8.08,0.0,0.0,0.0,-0.037,0.999,0.0,0.0,-0.068,205.616,20674.612,0.0,1.587,-0.0,0.0,0.0,0.0,-0.058,0.0,0.0,0.0,0.0,0.421,0.038,10.972,0.0,-0.038,0.601,0.0,0.0,0.0,0.0,0.0,0.0,-0.03,0.0,0.0,-0.006,0.0,0.0,0.0,-0.068,0.0,0.0,79.945,72.499,0.24,3219.332
3.068,-63.994,1990.528,0.0,79.54,-8.146,0.0,0.0,0.0,-0.037,0.999,0.0,0.0,-0.068,218.422,20593.491,0.0,1.564,-0.0,0.0,0.0,0.0,-0.058,0.0,0.0,0.0,0.0,0.419,0.038,10.954,0.0,-0.038,0.599,0.0,0.0,0.0,0.0,0.0,0.0,-0.03,0.0,0.0,-0.006,0.0,0.0,0.0,-0.068,0.0,0.0,79.952,72.506,0.24,3219.988
3.084,-62.666,1990.392,0.0,79.541,-8.212,0.0,0.0,0.0,-0.038,0.999,0.0,0.0,-0.068,231.337,20514.698,0.0,1.541,-0.0,0.0,0.0,0.0,-0.058,0.0,0.0,0.0,0.0,0.417,0.038,10.936,0.0,-0.038,0.596,0.0,0.0,0.0,0.0,0.0,0.0,-0.03,0.0,0.0,-0.006,0.0,0.0,0.0,-0.068,0.0,0.0,79.96,72.514,0.24,3220.654
3.101,-61.346,1990.255,0.0,79.543,-8.278,0.0,0.0,0.0,-0.039,0.999,0.0,0.0,-0.069,244.208,20437.171,0.0,1.518,-0.0,0.0,0.0,0.0,-0.058,0.0,0.0,0.0,0.0,0.416,0.038,10.919,0.0,-0.038,0.594,0.0,0.0,0.0,0.0,0.0,0.0,-0.03,0.0,0.0,-0.006,0.0,0.0,0.0,-0.069,0.0,0.0,79.968,72.521,0.24,3221.333
3.118,-60.017,1990.116,0.0,79.544,-8.344,0.0,0.0,0.0,-0.039,0.999,0.0,0.0,-0.069,257.006,20359.24,0.0,1.501,-0.0,0.0,0.0,0.0,-0.058,0.0,0.0,0.0,0.0,0.414,0.038,10.901,0.0,-0.039,0.592,0.0,0.0,0.0,0.0,0.0,0.0,-0.03,0.0,0.0,-0.005,0.0,0.0,0.0,-0.069,0.0,0.0,79.976,72.529,0.24,3222.03
3.134,-58.697,1989.977,0.0,79.545,-8.411,0.0,0.0,0.0,-0.04,0.999,0.0,0.0,-0.069,269.758,20281.887,0.0,1.478,-0.0,0.0,0.0,0.0,-0.058,0.0,0.0,0.0,0.0,0.412,0.038,10.883,0.0,-0.039,0.59,0.0,0.0,0.0,0.0,0.0,0.0,-0.03,0.0,0.0,-0.005,0.0,0.0,0.0,-0.069,0.0,0.0,79.984,72.537,0.24,3222.732
3.151,-57.368,1989.836,0.0,79.546,-8.478,0.0,0.0,0.0,-0.04,0.999,0.0,0.0,-0.069,282.519,20205.775,0.0,1.455,-0.0,0.0,0.0,0.0,-0.058,0.0,0.0,0.0,0.0,0.411,0.038,10.865,0.0,-0.039,0.588,0.0,0.0,0.0,0.0,0.0,0.0,-0.03,0.0,0.0,-0.005,0.0,0.0,0.0,-0.069,0.0,0.0,79.993,72.545,0.24,3223.452
3.168,-56.048,1989.694,0.0,79.548,-8.545,0.0,0.0,0.0,-0.041,0.999,0.0,0.0,-0.07,295.362,20132.173,0.0,1.432,-0.0,0.0,0.0,0.0,-0.058,0.0,0.0,0.0,0.0,0.409,0.038,10.848,0.0,-0.039,0.585,0.0,0.0,0.0,0.0,0.0,0.0,-0.03,0.0,0.0,-0.004,0.0,0.0,0.0,-0.069,0.0,0.0,80.001,72.553,0.241,3224.18
3.184,-54.712,1989.55,0.0,79.549,-8.614,0.0,0.0,0.0,-0.042,0.999,0.0,0.0,-0.07,308.137,20057.71,0.0,1.415,-0.0,0.0,0.0,0.0,-0.058,0.0,0.0,0.0,0.0,0.408,0.038,10.83,0.0,-0.039,0.583,0.0,0.0,0.0,0.0,0.0,0.0,-0.03,0.0,0.0,-0.004,0.0,0.0,0.0,-0.07,0.0,0.0,80.01,72.562,0.241,3224.926
3.201,-53.391,1989.407,0.0,79.551,-8.682,0.0,0.0,0.0,-0.042,0.999,0.0,0.0,-0.07,320.977,19985.465,0.0,1.392,-0.0,0.0,0.0,0.0,-0.058,0.0,0.0,0.0,0.0,0.406,0.038,10.812,0.0,-0.039,0.581,0.0,0.0,0.0,0.0,0.0,0.0,-0.03,0.0,0.0,-0.004,0.0,0.0,0.0,-0.07,0.0,0.0,80.019,72.57,0.241,3225.687
3.218,-52.063,1989.261,0.0,79.552,-8.751,0.0,0.0,0.0,-0.043,0.999,0.0,0.0,-0.07,333.711,19913.4,0.0,1.375,-0.0,0.0,0.0,0.0,-0.058,0.0,0.0,0.0,0.0,0.404,0.038,10.795,0.0,-0.04,0.579,0.0,0.0,0.0,0.0,0.0,0.0,-0.03,0.0,0.0,-0.004,0.0,0.0,0.0,-0.07,0.0,0.0,80.028,72.579,0.241,3226.455
3.234,-50.742,1989.115,0.0,79.554,-8.819,0.0,0.0,0.0,-0.043,0.999,0.0,0.0,-0.07,346.537,19843.855,0.0,1.352,-0.0,0.0,0.0,0.0,-0.058,0.0,0.0,0.0,0.0,0.403,0.037,10.777,0.0,-0.04,0.577,0.0,0.0,0.0,0.0,0.0,0.0,-0.03,0.0,0.0,-0.004,0.0,0.0,0.0,-0.07,0.0,0.0,80.037,72.588,0.241,3227.239
3.251,-49.413,1988.967,0.0,79.556,-8.889,0.0,0.0,0.0,-0.044,0.999,0.0,0.0,-0.07,359.261,19773.625,0.0,1.335,-0.0,0.0,0.0,0.0,-0.058,0.0,0.0,0.0,0.0,0.401,0.037,10.76,0.0,-0.04,0.575,0.0,0.0,0.0,0.0,0.0,0.0,-0.03,0.0,0.0,-0.003,0.0,0.0,0.0,-0.07,0.0,0.0,80.046,72.596,0.241,3228.032
3.268,-48.085,1988.818,0.0,79.558,-8.959,0.0,0.0,0.0,-0.045,0.999,0.0,0.0,-0.07,371.972,19703.576,0.0,1.312,-0.0,0.0,0.0,0.0,-0.058,0.0,0.0,0.0,0.0,0.4,0.037,10.742,0.0,-0.04,0.573,0.0,0.0,0.0,0.0,0.0,0.0,-0.03,0.0,0.0,-0.003,0.0,0.0,0.0,-0.07,0.0,0.0,80.056,72.606,0.241,3228.842
3.284,-46.748,1988.667,0.0,79.559,-9.029,0.0,0.0,0.0,-0.045,0.999,0.0,0.0,-0.07,384.847,19636.253,0.0,1.295,-0.0,0.0,0.0,0.0,-0.058,0.0,0.0,0.0,0.0,0.398,0.037,10.725,0.0,-0.04,0.571,0.0,0.0,0.0,0.0,0.0,0.0,-0.03,0.0,0.0,-0.003,0.0,0.0,0.0,-0.07,0.0,0.0,80.065,72.615,0.241,3229.671
3.301,-45.436,1988.518,0.0,79.561,-9.099,0.0,0.0,0.0,-0.046,0.999,0.0,0.0,-0.07,397.711,19571.506,0.0,1.278,-0.0,0.0,0.0,0.0,-0.058,0.0,0.0,0.0,0.0,0.397,0.037,10.708,0.0,-0.04,0.569,0.0,0.0,0.0,0.0,0.0,0.0,-0.03,0.0,0.0,-0.002,0.0,0.0,0.0,-0.07,0.0,0.0,80.075,72.624,0.241,3230.502
3.318,-44.099,1988.364,0.0,79.563,-9.17,0.0,0.0,0.0,-0.046,0.999,0.0,0.0,-0.07,410.265,19502.946,0.0,1.255,-0.0,0.0,0.0,0.0,-0.058,0.0,0.0,0.0,0.0,0.395,0.037,10.69,0.0,-0.04,0.567,0.0,0.0,0.0,0.0,0.0,0.0,-0.03,0.0,0.0,-0.002,0.0,0.0,0.0,-0.07,0.0,0.0,80.085,72.634,0.241,3231.352
3.334,-42.786,1988.212,0.0,79.565,-9.24,0.0,0.0,0.0,-0.047,0.999,0.0,0.0,-0.071,422.971,19437.78,0.0,1.238,-0.0,0.0,0.0,0.0,-0.058,0.0,0.0,0.0,0.0,0.394,0.037,10.673,0.0,-0.041,0.565,0.0,0.0,0.0,0.0,0.0,0.0,-0.03,0.0,0.0,-0.002,0.0,0.0,0.0,-0.07,0.0,0.0,80.095,72.644,0.241,3232.215
3.351,-41.457,1988.057,0.0,79.567,-9.311,0.0,0.0,0.0,-0.048,0.999,0.0,0.0,-0.071,435.492,19371.2,0.0,1.22,-0.0,0.0,0.0,0.0,-0.058,0.0,0.0,0.0,0.0,0.393,0.037,10.655,0.0,-0.041,0.563,0.0,0.0,0.0,0.0,0.0,0.0,-0.03,0.0,0.0,-0.002,0.0,0.0,0.0,-0.071,0.0,0.0,80.105,72.653,0.241,3233.088
3.368,-40.128,1987.901,0.0,79.569,-9.383,0.0,0.0,0.0,-0.048,0.999,0.0,0.0,-0.071,448.248,19307.919,0.0,1.203,-0.0,0.0,0.0,0.0,-0.058,0.0,0.0,0.0,0.0,0.391,0.037,10.638,0.0,-0.041,0.561,0.0,0.0,0.0,0.0,0.0,0.0,-0.03,0.0,0.0,-0.002,0.0,0.0,0.0,-0.071,0.0,0.0,80.116,72.663,0.241,3233.98
3.384,-38.808,1987.745,0.0,79.572,-9.454,0.0,0.0,0.0,-0.049,0.999,0.0,0.0,-0.071,460.821,19243.518,0.0,1.18,-0.0,0.0,0.0,0.0,-0.058,0.0,0.0,0.0,0.0,0.39,0.037,10.621,0.0,-0.041,0.559,0.0,0.0,0.0,0.0,0.0,0.0,-0.03,0.0,0.0,-0.001,0.0,0.0,0.0,-0.071,0.0,0.0,80.126,72.674,0.241,3234.877
3.401,-37.479,1987.586,0.0,79.574,-9.527,0.0,0.0,0.0,-0.049,0.999,0.0,0.0,-0.071,473.427,19180.501,0.0,1.163,-0.0,0.0,0.0,0.0,-0.058,0.0,0.0,0.0,0.0,0.388,0.037,10.604,0.0,-0.041,0.558,0.0,0.0,0.0,0.0,0.0,0.0,-0.03,0.0,0.0,-0.001,0.0,0.0,0.0,-0.071,0.0,0.0,80.137,72.684,0.241,3235.792
3.418,-36.15,1987.427,0.0,79.576,-9.599,0.0,0.0,0.0,-0.05,0.999,0.0,0.0,-0.071,486.221,19120.183,0.0,1.146,-0.0,0.0,0.0,0.0,-0.058,0.0,0.0,0.0,0.0,0.387,0.037,10.587,0.0,-0.041,0.556,0.0,0.0,0.0,0.0,0.0,0.0,-0.03,0.0,0.0,-0.001,0.0,0.0,0.0,-0.071,0.0,0.0,80.148,72.694,0.241,3236.727
3.434,-34.821,1987.266,0.0,79.579,-9.672,0.0,0.0,0.0,-0.051,0.999,0.0,0.0,-0.071,498.824,19058.222,0.0,1.129,-0.0,0.0,0.0,0.0,-0.058,0.0,0.0,0.0,0.0,0.386,0.036,10.57,0.0,-0.041,0.554,0.0,0.0,0.0,0.0,0.0,0.0,-0.03,0.0,0.0,-0.001,0.0,0.0,0.0,-0.071,0.0,0.0,80.159,72.705,0.241,3237.668
3.451,-33.492,1987.104,0.0,79.581,-9.745,0.0,0.0,0.0,-0.051,0.999,0.0,0.0,-0.071,511.566,18999.147,0.0,1.112,-0.0,0.0,0.0,0.0,-0.058,0.0,0.0,0.0,0.0,0.384,0.036,10.553,0.0,-0.041,0.552,0.0,0.0,0.0,0.0,0.0,0.0,-0.03,0.0,0.0,-0.001,0.0,0.0,0.0,-0.071,0.0,0.0,80.17,72.716,0.241,3238.627
3.468,-32.179,1986.942,0.0,79.584,-9.818,0.0,0.0,0.0,-0.052,0.999,0.0,0.0,-0.071,524.232,18941.161,0.0,1.094,-0.0,0.0,0.0,0.0,-0.058,0.0,0.0,0.0,0.0,0.383,0.036,10.537,0.0,-0.042,0.55,0.0,0.0,0.0,0.0,0.0,0.0,-0.03,0.0,0.0,-0.0,0.0,0.0,0.0,-0.071,0.0,0.0,80.181,72.726,0.241,3239.588
3.484,-30.85,1986.778,0.0,79.586,-9.891,0.0,0.0,0.0,-0.052,0.999,0.0,0.0,-0.071,536.668,18880.862,0.0,1.077,-0.0,0.0,0.0,0.0,-0.058,0.0,0.0,0.0,0.0,0.382,0.036,10.519,0.0,-0.042,0.549,0.0,0.0,0.0,0.0,0.0,0.0,-0.03,0.0,0.0,-0.0,0.0,0.0,0.0,-0.071,0.0,0.0,80.193,72.737,0.241,3240.568
3.501,-29.521,1986.612,0.0,79.589,-9.965,0.0,0.0,0.0,-0.053,0.999,0.0,0.0,-0.071,549.244,18821.855,0.0,1.06,-0.0,0.0,0.0,0.0,-0.058,0.0,0.0,0.0,0.0,0.38,0.036,10.502,0.0,-0.042,0.547,0.0,0.0,0.0,0.0,0.0,0.0,-0.03,0.0,0.0,-0.0,0.0,0.0,0.0,-0.071,0.0,0.0,80.204,72.749,0.241,3241.569
3.518,-28.199,1986.446,0.0,79.591,-10.039,0.0,0.0,0.0,-0.054,0.999,0.0,0.0,-0.071,561.949,18765.977,0.0,1.043,-0.0,0.0,0.0,0.0,-0.058,0.0,0.0,0.0,0.0,0.379,0.036,10.486,0.0,-0.042,0.545,0.0,0.0,0.0,0.0,0.0,0.0,-0.03,0.0,0.0,0.0,0.0,0.0,0.0,-0.071,0.0,0.0,80.216,72.76,0.241,3242.576
3.534,-26.87,1986.278,0.0,79.594,-10.114,0.0,0.0,0.0,-0.054,0.998,0.0,0.0,-0.071,574.519,18709.205,0.0,1.031,-0.0,0.0,0.0,0.0,-0.058,0.0,0.0,0.0,0.0,0.378,0.036,10.469,0.0,-0.042,0.544,0.0,0.0,0.0,0.0,0.0,0.0,-0.03,0.0,0.0,0.0,0.0,0.0,0.0,-0.071,0.0,0.0,80.228,72.771,0.241,3243.6
3.551,-25.549,1986.109,0.0,79.597,-10.188,0.0,0.0,0.0,-0.055,0.998,0.0,0.0,-0.071,587.015,18652.262,0.0,1.014,-0.0,0.0,0.0,0.0,-0.058,0.0,0.0,0.0,0.0,0.377,0.036,10.452,0.0,-0.042,0.542,0.0,0.0,0.0,0.0,0.0,0.0,-0.03,0.0,0.0,0.0,0.0,0.0,0.0,-0.071,0.0,0.0,80.24,72.783,0.241,3244.632
3.568,-24.22,1985.938,0.0,79.6,-10.263,0.0,0.0,0.0,-0.055,0.998,0.0,0.0,-0.071,599.55,18596.724,0.0,0.997,-0.0,0.0,0.0,0.0,-0.058,0.0,0.0,0.0,0.0,0.375,0.036,10.436,0.0,-0.042,0.54,0.0,0.0,0.0,0.0,0.0,0.0,-0.03,0.0,0.0,0.001,0.0,0.0,0.0,-0.071,0.0,0.0,80.252,72.795,0.241,3245.682
3.584,-22.89,1985.766,0.0,79.603,-10.338,0.0,0.0,0.0,-0.056,0.998,0.0,0.0,-0.071,612.23,18543.186,0.0,0.98,-0.0,0.0,0.0,0.0,-0.058,0.0,0.0,0.0,0.0,0.374,0.036,10.42,0.0,-0.042,0.539,0.0,0.0,0.0,0.0,0.0,0.0,-0.03,0.0,0.0,0.001,0.0,0.0,0.0,-0.071,0.0,0.0,80.265,72.807,0.241,3246.75
3.601,-21.561,1985.593,0.0,79.606,-10.414,0.0,0.0,0.0,-0.057,0.998,0.0,0.0,-0.071,624.731,18488.005,0.0,0.963,-0.0,0.0,0.0,0.0,-0.058,0.0,0.0,0.0,0.0,0.373,0.036,10.403,0.0,-0.042,0.537,0.0,0.0,0.0,0.0,0.0,0.0,-0.03,0.0,0.0,0.001,0.0,0.0,0.0,-0.071,0.0,0.0,80.278,72.819,0.241,3247.828
3.618,-20.239,1985.42,0.0,79.609,-10.489,0.0,0.0,0.0,-0.057,0.998,0.0,0.0,-0.071,637.393,18436.105,0.0,0.951,-0.0,0.0,0.0,0.0,-0.058,0.0,0.0,0.0,0.0,0.372,0.036,10.387,0.0,-0.043,0.536,0.0,0.0,0.0,0.0,0.0,0.0,-0.03,0.0,0.0,0.001,0.0,0.0,0.0,-0.071,0.0,0.0,80.29,72.831,0.241,3248.919
3.634,-18.902,1985.243,0.0,79.612,-10.566,0.0,0.0,0.0,-0.058,0.998,0.0,0.0,-0.071,649.965,18383.175,0.0,0.934,-0.0,0.0,0.0,0.0,-0.058,0.0,0.0,0.0,0.0,0.371,0.036,10.37,0.0,-0.043,0.534,0.0,0.0,0.0,0.0,0.0,0.0,-0.03,0.0,0.0,0.001,0.0,0.0,0.0,-0.071,0.0,0.0,80.303,72.843,0.242,3250.024
3.651,-17.58,1985.067,0.0,79.615,-10.641,0.0,0.0,0.0,-0.058,0.998,0.0,0.0,-0.071,662.581,18331.661,0.0,0.917,-0.0,0.0,0.0,0.0,-0.058,0.0,0.0,0.0,0.0,0.37,0.036,10.354,0.0,-0.043,0.533,0.0,0.0,0.0,0.0,0.0,0.0,-0.03,0.0,0.0,0.002,0.0,0.0,0.0,-0.071,0.0,0.0,80.316,72.856,0.242,3251.143
3.668,-16.251,1984.888,0.0,79.618,-10.718,0.0,0.0,0.0,-0.059,0.998,0.0,0.0,-0.071,675.087,18280.225,0.0,0.905,-0.0,0.0,0.0,0.0,-0.058,0.0,0.0,0.0,0.0,0.368,0.036,10.338,0.0,-0.043,0.531,0.0,0.0,0.0,0.0,0.0,0.0,-0.03,0.0,0.0,0.002,0.0,0.0,0.0,-0.071,0.0,0.0,80.33,72.869,0.242,3252.269
3.684,-14.921,1984.709,0.0,79.621,-10.795,0.0,0.0,0.0,-0.06,0.998,0.0,0.0,-0.07,687.752,18230.77,0.0,0.888,-0.0,0.0,0.0,0.0,-0.058,0.0,0.0,0.0,0.0,0.367,0.036,10.322,0.0,-0.043,0.53,0.0,0.0,0.0,0.0,0.0,0.0,-0.03,0.0,0.0,0.002,0.0,0.0,0.0,-0.071,0.0,0.0,80.343,72.881,0.242,3253.415
3.701,-13.599,1984.529,0.0,79.625,-10.871,0.0,0.0,0.0,-0.06,0.998,0.0,0.0,-0.07,700.176,18179.65,0.0,0.871,-0.0,0.0,0.0,0.0,-0.058,0.0,0.0,0.0,0.0,0.366,0.036,10.306,0.0,-0.043,0.528,0.0,0.0,0.0,0.0,0.0,0.0,-0.03,0.0,0.0,0.002,0.0,0.0,0.0,-0.07,0.0,0.0,80.357,72.894,0.242,3254.575
3.718,-12.27,1984.347,0.0,79.628,-10.949,0.0,0.0,0.0,-0.061,0.998,0.0,0.0,-0.07,712.692,18130.196,0.0,0.859,-0.0,0.0,0.0,0.0,-0.058,0.0,0.0,0.0,0.0,0.365,0.036,10.29,0.0,-0.043,0.527,0.0,0.0,0.0,0.0,0.0,0.0,-0.03,0.0,0.0,0.002,0.0,0.0,0.0,-0.07,0.0,0.0,80.37,72.908,0.242,3255.745
3.734,-10.94,1984.163,0.0,79.632,-11.026,0.0,0.0,0.0,-0.061,0.998,0.0,0.0,-0.07,725.374,18082.71,0.0,0.842,-0.0,0.0,0.0,0.0,-0.058,0.0,0.0,0.0,0.0,0.364,0.035,10.275,0.0,-0.043,0.526,0.0,0.0,0.0,0.0,0.0,0.0,-0.03,0.0,0.0,0.002,0.0,0.0,0.0,-0.07,0.0,0.0,80.384,72.921,0.242,3256.935
3.751,-9.618,1983.98,0.0,79.635,-11.103,0.0,0.0,0.0,-0.062,0.998,0.0,0.0,-0.07,737.758,18033.198,0.0,0.831,-0.0,0.0,0.0,0.0,-0.058,0.0,0.0,0.0,0.0,0.363,0.035,10.258,0.0,-0.043,0.524,0.0,0.0,0.0,0.0,0.0,0.0,-0.03,0.0,0.0,0.002,0.0,0.0,0.0,-0.07,0.0,0.0,80.398,72.934,0.242,3258.138
3.768,-8.288,1983.793,0.0,79.639,-11.181,0.0,0.0,0.0,-0.063,0.998,0.0,0.0,-0.07,750.25,17985.445,0.0,0.814,-0.0,0.0,0.0,0.0,-0.058,0.0,0.0,0.0,0.0,0.362,0.035,10.243,0.0,-0.044,0.523,0.0,0.0,0.0,0.0,0.0,0.0,-0.03,0.0,0.0,0.002,0.0,0.0,0.0,-0.07,0.0,0.0,80.413,72.948,0.242,3259.352
3.784,-6.966,1983.607,0.0,79.642,-11.259,0.0,0.0,0.0,-0.063,0.998,0.0,0.0,-0.07,762.628,17937.079,0.0,0.802,-0.0,0.0,0.0,0.0,-0.058,0.0,0.0,0.0,0.0,0.36,0.035,10.227,0.0,-0.044,0.521,0.0,0.0,0.0,0.0,0.0,0.0,-0.03,0.0,0.0,0.003,0.0,0.0,0.0,-0.07,0.0,0.0,80.427,72.962,0.242,3260.581
3.801,-5.636,1983.418,0.0,79.646,-11.338,0.0,0.0,0.0,-0.064,0.998,0.0,0.0,-0.07,775.079,17890.264,0.0,0.785,-0.0,0.0,0.0,0.0,-0.058,0.0,0.0,0.0,0.0,0.36,0.035,10.211,0.0,-0.044,0.52,0.0,0.0,0.0,0.0,0.0,0.0,-0.03,0.0,0.0,0.003,0.0,0.0,0.0,-0.07,0.0,0.0,80.442,72.976,0.242,3261.821
3.818,-4.314,1983.23,0.0,79.65,-11.416,0.0,0.0,0.0,-0.064,0.998,0.0,0.0,-0.07,787.668,17845.51,0.0,0.773,-0.0,0.0,0.0,0.0,-0.058,0.0,0.0,0.0,0.0,0.358,0.035,10.196,0.0,-0.044,0.519,0.0,0.0,0.0,0.0,0.0,0.0,-0.03,0.0,0.0,0.003,0.0,0.0,0.0,-0.07,0.0,0.0,80.456,72.99,0.242,3263.076
3.834,-2.984,1983.038,0.0,79.654,-11.495,0.0,0.0,0.0,-0.065,0.998,0.0,0.0,-0.07,799.87,17797.158,0.0,0.762,-0.0,0.0,0.0,0.0,-0.058,0.0,0.0,0.0,0.0,0.357,0.035,10.18,0.0,-0.044,0.517,0.0,0.0,0.0,0.0,0.0,0.0,-0.03,0.0,0.0,0.003,0.0,0.0,0.0,-0.07,0.0,0.0,80.471,73.004,0.242,3264.342
3.851,-1.653,1982.846,0.0,79.657,-11.574,0.0,0.0,0.0,-0.066,0.998,0.0,0.0,-0.07,812.514,17753.488,0.0,0.745,-0.0,0.0,0.0,0.0,-0.058,0.0,0.0,0.0,0.0,0.356,0.035,10.164,0.0,-0.044,0.516,0.0,0.0,0.0,0.0,0.0,0.0,-0.03,0.0,0.0,0.003,0.0,0.0,0.0,-0.07,0.0,0.0,80.486,73.018,0.242,3265.629
3.868,-0.331,1982.653,0.0,79.661,-11.652,0.0,0.0,0.0,-0.066,0.998,0.0,0.0,-0.069,824.828,17707.58,0.0,0.733,-0.0,0.0,0.0,0.0,-0.058,0.0,0.0,0.0,0.0,0.355,0.035,10.149,0.0,-0.044,0.515,0.0,0.0,0.0,0.0,0.0,0.0,-0.03,0.0,0.0,0.003,0.0,0.0,0.0,-0.069,0.0,0.0,80.501,73.033,0.242,3266.928
3.884,0.999,1982.458,0.0,79.665,-11.732,0.0,0.0,0.0,-0.067,0.998,0.0,0.0,-0.069,837.244,17663.378,0.0,0.722,-0.0,0.0,0.0,0.0,-0.058,0.0,0.0,0.0,0.0,0.354,0.035,10.133,0.0,-0.044,0.513,0.0,0.0,0.0,0.0,0.0,0.0,-0.03,0.0,0.0,0.004,0.0,0.0,0.0,-0.069,0.0,0.0,80.517,73.047,0.242,3268.238
3.901,2.33,1982.261,0.0,79.669,-11.812,0.0,0.0,0.0,-0.067,0.998,0.0,0.0,-0.069,849.848,17621.106,0.0,0.705,-0.0,0.0,0.0,0.0,-0.058,0.0,0.0,0.0,0.0,0.353,0.035,10.118,0.0,-0.044,0.512,0.0,0.0,0.0,0.0,0.0,0.0,-0.03,0.0,0.0,0.004,0.0,0.0,0.0,-0.069,0.0,0.0,80.532,73.062,0.242,3269.568
3.918,3.66,1982.063,0.0,79.674,-11.892,0.0,0.0,0.0,-0.068,0.998,0.0,0.0,-0.069,862.149,17576.408,0.0,0.693,-0.0,0.0,0.0,0.0,-0.058,0.0,0.0,0.0,0.0,0.352,0.035,10.103,0.0,-0.044,0.511,0.0,0.0,0.0,0.0,0.0,0.0,-0.03,0.0,0.0,0.004,0.0,0.0,0.0,-0.069,0.0,0.0,80.548,73.077,0.242,3270.915
3.934,4.983,1981.865,0.0,79.678,-11.971,0.0,0.0,0.0,-0.069,0.998,0.0,0.0,-0.069,874.693,17535.146,0.0,0.682,-0.0,0.0,0.0,0.0,-0.058,0.0,0.0,0.0,0.0,0.351,0.035,10.088,0.0,-0.044,0.51,0.0,0.0,0.0,0.0,0.0,0.0,-0.03,0.0,0.0,0.004,0.0,0.0,0.0,-0.069,0.0,0.0,80.564,73.092,0.242,3272.267
3.951,6.314,1981.664,0.0,79.682,-12.052,0.0,0.0,0.0,-0.069,0.998,0.0,0.0,-0.069,886.763,17489.86,0.0,0.665,-0.0,0.0,0.0,0.0,-0.058,0.0,0.0,0.0,0.0,0.35,0.035,10.072,0.0,-0.044,0.508,0.0,0.0,0.0,0.0,0.0,0.0,-0.03,0.0,0.0,0.004,0.0,0.0,0.0,-0.069,0.0,0.0,80.58,73.108,0.242,3273.63
3.968,7.644,1981.462,0.0,79.686,-12.132,0.0,0.0,0.0,-0.07,0.998,0.0,0.0,-0.069,899.372,17449.816,0.0,0.653,-0.0,0.0,0.0,0.0,-0.058,0.0,0.0,0.0,0.0,0.349,0.035,10.058,0.0,-0.044,0.507,0.0,0.0,0.0,0.0,0.0,0.0,-0.03,0.0,0.0,0.004,0.0,0.0,0.0,-0.069,0.0,0.0,80.596,73.123,0.242,3275.014
3.984,8.967,1981.26,0.0,79.69,-12.212,0.0,0.0,0.0,-0.07,0.998,0.0,0.0,-0.068,911.934,17410.326,0.0,0.642,-0.0,0.0,0.0,0.0,-0.058,0.0,0.0,0.0,0.0,0.348,0.035,10.043,0.0,-0.045,0.506,0.0,0.0,0.0,0.0,0.0,0.0,-0.03,0.0,0.0,0.004,0.0,0.0,0.0,-0.068,0.0,0.0,80.612,73.138,0.242,3276.41
4.001,10.298,1981.056,0.0,79.695,-12.293,0.0,0.0,0.0,-0.071,0.998,0.0,0.0,-0.068,924.007,17366.748,0.0,0.63,-0.0,0.0,0.0,0.0,-0.058,0.0,0.0,0.0,0.0,0.347,0.035,10.027,0.0,-0.045,0.505,0.0,0.0,0.0,0.0,0.0,0.0,-0.03,0.0,0.0,0.004,0.0,0.0,0.0,-0.068,0.0,0.0,80.629,73.154,0.242,3277.818
4.018,11.629,1980.85,0.0,79.699,-12.374,0.0,0.0,0.0,-0.072,0.997,0.0,0.0,-0.068,936.602,17328.08,0.0,0.619,-0.0,0.0,0.0,0.0,-0.058,0.0,0.0,0.0,0.0,0.346,0.035,10.013,0.0,-0.045,0.504,0.0,0.0,0.0,0.0,0.0,0.0,-0.03,0.0,0.0,0.004,0.0,0.0,0.0,-0.068,0.0,0.0,80.646,73.17,0.242,3279.245
4.034,12.952,1980.644,0.0,79.704,-12.455,0.0,0.0,0.0,-0.072,0.997,0.0,0.0,-0.068,948.815,17286.864,0.0,0.607,-0.0,0.0,0.0,0.0,-0.058,0.0,0.0,0.0,0.0,0.346,0.035,9.998,0.0,-0.045,0.502,0.0,0.0,0.0,0.0,0.0,0.0,-0.03,0.0,0.0,0.004,0.0,0.0,0.0,-0.068,0.0,0.0,80.663,73.186,0.242,3280.686
4.051,14.283,1980.435,0.0,79.708,-12.536,0.0,0.0,0.0,-0.073,0.997,0.0,0.0,-0.068,961.195,17247.674,0.0,0.59,-0.0,0.0,0.0,0.0,-0.058,0.0,0.0,0.0,0.0,0.344,0.034,9.983,0.0,-0.045,0.501,0.0,0.0,0.0,0.0,0.0,0.0,-0.03,0.0,0.0,0.005,0.0,0.0,0.0,-0.068,0.0,0.0,80.68,73.202,0.243,3282.139
4.068,15.606,1980.226,0.0,79.713,-12.618,0.0,0.0,0.0,-0.073,0.997,0.0,0.0,-0.067,973.392,17207.297,0.0,0.579,-0.0,0.0,0.0,0.0,-0.058,0.0,0.0,0.0,0.0,0.344,0.034,9.968,0.0,-0.045,0.5,0.0,0.0,0.0,0.0,0.0,0.0,-0.03,0.0,0.0,0.005,0.0,0.0,0.0,-0.068,0.0,0.0,80.697,73.219,0.243,3283.607
4.084,16.937,1980.015,0.0,79.718,-12.7,0.0,0.0,0.0,-0.074,0.997,0.0,0.0,-0.067,985.769,17169.013,0.0,0.567,-0.0,0.0,0.0,0.0,-0.058,0.0,0.0,0.0,0.0,0.343,0.034,9.954,0.0,-0.045,0.499,0.0,0.0,0.0,0.0,0.0,0.0,-0.03,0.0,0.0,0.005,0.0,0.0,0.0,-0.067,0.0,0.0,80.714,73.235,0.243,3285.088
4.101,18.269,1979.802,0.0,79.722,-12.782,0.0,0.0,0.0,-0.075,0.997,0.0,0.0,-0.067,998.36,17132.606,0.0,0.556,-0.0,0.0,0.0,0.0,-0.058,0.0,0.0,0.0,0.0,0.342,0.034,9.94,0.0,-0.045,0.498,0.0,0.0,0.0,0.0,0.0,0.0,-0.03,0.0,0.0,0.005,0.0,0.0,0.0,-0.067,0.0,0.0,80.732,73.252,0.243,3286.588
4.118,19.6,1979.588,0.0,79.727,-12.864,0.0,0.0,0.0,-0.075,0.997,0.0,0.0,-0.067,1010.533,17093.168,0.0,0.544,-0.0,0.0,0.0,0.0,-0.058,0.0,0.0,0.0,0.0,0.341,0.034,9.925,0.0,-0.045,0.497,0.0,0.0,0.0,0.0,0.0,0.0,-0.03,0.0,0.0,0.005,0.0,0.0,0.0,-0.067,0.0,0.0,80.75,73.269,0.243,3288.105
4.134,20.924,1979.374,0.0,79.732,-12.946,0.0,0.0,0.0,-0.076,0.997,0.0,0.0,-0.067,1023.034,17057.437,0.0,0.533,-0.0,0.0,0.0,0.0,-0.058,0.0,0.0,0.0,0.0,0.34,0.034,9.911,0.0,-0.045,0.496,0.0,0.0,0.0,0.0,0.0,0.0,-0.03,0.0,0.0,0.005,0.0,0.0,0.0,-0.067,0.0,0.0,80.767,73.286,0.243,3289.627
4.151,22.255,1979.157,0.0,79.737,-13.028,0.0,0.0,0.0,-0.076,0.997,0.0,0.0,-0.066,1040.02,17060.532,0.0,0.533,-0.0,0.0,0.0,0.0,-0.058,0.0,0.0,0.0,0.0,0.34,0.034,9.91,0.0,-0.045,0.496,0.0,0.0,0.0,0.0,0.0,0.0,-0.03,0.0,0.0,0.005,0.0,0.0,0.0,-0.066,0.0,0.0,80.785,73.303,0.243,3291.17
4.168,23.587,1978.938,0.0,79.742,-13.111,0.0,0.0,0.0,-0.077,0.997,0.0,0.0,-0.066,1052.513,17025.106,0.0,0.521,-0.0,0.0,0.0,0.0,-0.058,0.0,0.0,0.0,0.0,0.339,0.034,9.896,0.0,-0.045,0.495,0.0,0.0,0.0,0.0,0.0,0.0,-0.03,0.0,0.0,0.005,0.0,0.0,0.0,-0.066,0.0,0.0,80.804,73.32,0.243,3292.73
4.184,24.903,1978.721,0.0,79.747,-13.192,0.0,0.0,0.0,-0.077,0.997,0.0,0.0,-0.066,1064.48,16986.631,0.0,0.51,-0.0,0.0,0.0,0.0,-0.058,0.0,0.0,0.0,0.0,0.338,0.034,9.881,0.0,-0.046,0.494,0.0,0.0,0.0,0.0,0.0,0.0,-0.03,0.0,0.0,0.005,0.0,0.0,0.0,-0.066,0.0,0.0,80.822,73.338,0.243,3294.29
4.201,26.234,1978.5,0.0,79.752,-13.275,0.0,0.0,0.0,-0.078,0.997,0.0,0.0,-0.066,1081.68,16992.17,0.0,0.51,-0.0,0.0,0.0,0.0,-0.058,0.0,0.0,0.0,0.0,0.338,0.034,9.88,0.0,-0.046,0.494,0.0,0.0,0.0,0.0,0.0,0.0,-0.03,0.0,0.0,0.005,0.0,0.0,0.0,-0.066,0.0,0.0,80.84,73.355,0.243,3295.864
4.218,27.574,1978.277,0.0,79.758,-13.358,0.0,0.0,0.0,-0.078,0.997,0.0,0.0,-0.066,1099.351,17000.391,0.0,0.51,-0.0,0.0,0.0,0.0,-0.058,0.0,0.0,0.0,0.0,0.338,0.034,9.88,0.0,-0.046,0.494,0.0,0.0,0.0,0.0,0.0,0.0,-0.03,0.0,0.0,0.005,0.0,0.0,0.0,-0.066,0.0,0.0,80.859,73.373,0.243,3297.471
4.234,28.898,1978.054,0.0,79.763,-13.44,0.0,0.0,0.0,-0.079,0.997,0.0,0.0,-0.065,1116.683,17006.356,0.0,0.51,-0.0,0.0,0.0,0.0,-0.058,0.0,0.0,0.0,0.0,0.338,0.034,9.88,0.0,-0.046,0.494,0.0,0.0,0.0,0.0,0.0,0.0,-0.03,0.0,0.0,0.005,0.0,0.0,0.0,-0.066,0.0,0.0,80.878,73.391,0.243,3299.084
4.251,30.23,1977.829,0.0,79.768,-13.523,0.0,0.0,0.0,-0.079,0.997,0.0,0.0,-0.065,1134.024,17012.809,0.0,0.51,-0.0,0.0,0.0,0.0,-0.058,0.0,0.0,0.0,0.0,0.338,0.034,9.88,0.0,-0.046,0.495,0.0,0.0,0.0,0.0,0.0,0.0,-0.03,0.0,0.0,0.005,0.0,0.0,0.0,-0.065,0.0,0.0,80.897,73.409,0.243,3300.706
4.268,31.555,1977.604,0.0,79.774,-13.605,0.0,0.0,0.0,-0.08,0.997,0.0,0.0,-0.065,1151.111,17017.181,0.0,0.51,-0.0,0.0,0.0,0.0,-0.058,0.0,0.0,0.0,0.0,0.338,0.034,9.879,0.0,-0.046,0.495,0.0,0.0,0.0,0.0,0.0,0.0,-0.03,0.0,0.0,0.005,0.0,0.0,0.0,-0.065,0.0,0.0,80.916,73.427,0.243,3302.34
4.284,32.895,1977.375,0.0,79.78,-13.688,0.0,0.0,0.0,-0.08,0.997,0.0,0.0,-0.065,1168.476,17023.445,0.0,0.51,-0.0,0.0,0.0,0.0,-0.058,0.0,0.0,0.0,0.0,0.338,0.034,9.878,0.0,-0.046,0.495,0.0,0.0,0.0,0.0,0.0,0.0,-0.03,0.0,0.0,0.005,0.0,0.0,0.0,-0.065,0.0,0.0,80.936,73.446,0.243,3303.998
4.301,34.227,1977.145,0.0,79.785,-13.77,0.0,0.0,0.0,-0.081,0.997,0.0,0.0,-0.065,1186.188,17032.178,0.0,0.51,-0.0,0.0,0.0,0.0,-0.058,0.0,0.0,0.0,0.0,0.338,0.034,9.879,0.0,-0.046,0.495,0.0,0.0,0.0,0.0,0.0,0.0,-0.03,0.0,0.0,0.005,0.0,0.0,0.0,-0.065,0.0,0.0,80.955,73.464,0.243,3305.669
4.318,35.544,1976.918,0.0,79.791,-13.852,0.0,0.0,0.0,-0.081,0.997,0.0,0.0,-0.064,1203.129,17036.009,0.0,0.504,-0.0,0.0,0.0,0.0,-0.058,0.0,0.0,0.0,0.0,0.338,0.034,9.878,0.0,-0.046,0.496,0.0,0.0,0.0,0.0,0.0,0.0,-0.03,0.0,0.0,0.005,0.0,0.0,0.0,-0.064,0.0,0.0,80.975,73.483,0.243,3307.343
4.334,36.876,1976.686,0.0,79.797,-13.934,0.0,0.0,0.0,-0.082,0.997,0.0,0.0,-0.064,1220.14,17040.432,0.0,0.504,-0.0,0.0,0.0,0.0,-0.058,0.0,0.0,0.0,0.0,0.338,0.034,9.877,0.0,-0.046,0.496,0.0,0.0,0.0,0.0,0.0,0.0,-0.03,0.0,0.0,0.005,0.0,0.0,0.0,-0.064,0.0,0.0,80.994,73.502,0.244,3309.03
4.351,38.209,1976.452,0.0,79.803,-14.017,0.0,0.0,0.0,-0.082,0.997,0.0,0.0,-0.064,1237.14,17043.992,0.0,0.504,-0.0,0.0,0.0,0.0,-0.058,0.0,0.0,0.0,0.0,0.338,0.034,9.875,0.0,-0.046,0.496,0.0,0.0,0.0,0.0,0.0,0.0,-0.03,0.0,0.0,0.005,0.0,0.0,0.0,-0.064,0.0,0.0,81.014,73.521,0.244,3310.737
4.368,39.534,1976.219,0.0,79.808,-14.099,0.0,0.0,0.0,-0.083,0.997,0.0,0.0,-0.064,1254.483,17050.769,0.0,0.504,-0.0,0.0,0.0,0.0,-0.058,0.0,0.0,0.0,0.0,0.338,0.034,9.875,0.0,-0.046,0.496,0.0,0.0,0.0,0.0,0.0,0.0,-0.03,0.0,0.0,0.005,0.0,0.0,0.0,-0.064,0.0,0.0,81.034,73.54,0.244,3312.454
4.384,40.867,1975.983,0.0,79.815,-14.181,0.0,0.0,0.0,-0.083,0.996,0.0,0.0,-0.064,1271.636,17056.072,0.0,0.504,-0.0,0.0,0.0,0.0,-0.058,0.0,0.0,0.0,0.0,0.338,0.034,9.874,0.0,-0.046,0.496,0.0,0.0,0.0,0.0,0.0,0.0,-0.03,0.0,0.0,0.005,0.0,0.0,0.0,-0.064,0.0,0.0,81.054,73.559,0.244,3314.18
4.402,42.264,1975.734,0.0,79.821,-14.267,0.0,0.0,0.0,-0.084,0.996,0.0,0.0,-0.063,1288.896,17058.864,0.0,0.504,-0.0,0.0,0.0,0.0,-0.058,0.0,0.0,0.0,0.0,0.338,0.034,9.873,0.0,-0.046,0.496,0.0,0.0,0.0,0.0,0.0,0.0,-0.03,0.0,0.0,0.005,0.0,0.0,0.0,-0.064,0.0,0.0,81.075,73.579,0.244,3315.974
4.418,43.533,1975.506,0.0,79.827,-14.346,0.0,0.0,0.0,-0.084,0.996,0.0,0.0,-0.063,1301.918,17032.911,0.0,0.493,-0.0,0.0,0.0,0.0,-0.058,0.0,0.0,0.0,0.0,0.337,0.034,9.862,0.0,-0.046,0.496,0.0,0.0,0.0,0.0,0.0,0.0,-0.03,0.0,0.0,0.005,0.0,0.0,0.0,-0.063,0.0,0.0,81.096,73.598,0.244,3317.734
4.434,44.858,1975.267,0.0,79.833,-14.428,0.0,0.0,0.0,-0.085,0.996,0.0,0.0,-0.063,1316.871,17024.988,0.0,0.487,-0.0,0.0,0.0,0.0,-0.058,0.0,0.0,0.0,0.0,0.337,0.034,9.856,0.0,-0.046,0.495,0.0,0.0,0.0,0.0,0.0,0.0,-0.03,0.0,0.0,0.005,0.0,0.0,0.0,-0.063,0.0,0.0,81.116,73.618,0.244,3319.462
4.451,46.183,1975.027,0.0,79.839,-14.51,0.0,0.0,0.0,-0.086,0.996,0.0,0.0,-0.063,1333.934,17030.226,0.0,0.487,-0.0,0.0,0.0,0.0,-0.058,0.0,0.0,0.0,0.0,0.337,0.034,9.856,0.0,-0.046,0.496,0.0,0.0,0.0,0.0,0.0,0.0,-0.03,0.0,0.0,0.005,0.0,0.0,0.0,-0.063,0.0,0.0,81.137,73.637,0.244,3321.238
4.468,47.525,1974.783,0.0,79.846,-14.593,0.0,0.0,0.0,-0.086,0.996,0.0,0.0,-0.063,1350.569,17031.635,0.0,0.487,-0.0,0.0,0.0,0.0,-0.058,0.0,0.0,0.0,0.0,0.336,0.034,9.854,0.0,-0.046,0.496,0.0,0.0,0.0,0.0,0.0,0.0,-0.03,0.0,0.0,0.005,0.0,0.0,0.0,-0.063,0.0,0.0,81.158,73.657,0.244,3323.04
4.484,48.858,1974.538,0.0,79.852,-14.675,0.0,0.0,0.0,-0.086,0.996,0.0,0.0,-0.062,1368.118,17039.403,0.0,0.487,-0.0,0.0,0.0,0.0,-0.058,0.0,0.0,0.0,0.0,0.336,0.034,9.853,0.0,-0.046,0.496,0.0,0.0,0.0,0.0,0.0,0.0,-0.03,0.0,0.0,0.005,0.0,0.0,0.0,-0.062,0.0,0.0,81.179,73.677,0.244,3324.866
4.501,50.184,1974.294,0.0,79.859,-14.757,0.0,0.0,0.0,-0.087,0.996,0.0,0.0,-0.062,1385.374,17045.743,0.0,0.487,-0.0,0.0,0.0,0.0,-0.058,0.0,0.0,0.0,0.0,0.336,0.034,9.853,0.0,-0.046,0.496,0.0,0.0,0.0,0.0,0.0,0.0,-0.03,0.0,0.0,0.005,0.0,0.0,0.0,-0.062,0.0,0.0,81.2,73.698,0.244,3326.691
4.518,51.51,1974.048,0.0,79.866,-14.839,0.0,0.0,0.0,-0.088,0.996,0.0,0.0,-0.062,1401.789,17046.574,0.0,0.487,-0.0,0.0,0.0,0.0,-0.058,0.0,0.0,0.0,0.0,0.336,0.034,9.85,0.0,-0.046,0.496,0.0,0.0,0.0,0.0,0.0,0.0,-0.03,0.0,0.0,0.005,0.0,0.0,0.0,-0.062,0.0,0.0,81.222,73.718,0.244,3328.527
4.534,52.843,1973.8,0.0,79.872,-14.922,0.0,0.0,0.0,-0.088,0.996,0.0,0.0,-0.062,1418.763,17051.09,0.0,0.481,-0.0,0.0,0.0,0.0,-0.058,0.0,0.0,0.0,0.0,0.336,0.034,9.849,0.0,-0.046,0.496,0.0,0.0,0.0,0.0,0.0,0.0,-0.03,0.0,0.0,0.005,0.0,0.0,0.0,-0.062,0.0,0.0,81.243,73.738,0.244,3330.376
4.551,54.169,1973.551,0.0,79.879,-15.004,0.0,0.0,0.0,-0.088,0.996,0.0,0.0,-0.062,1435.368,17053.042,0.0,0.481,-0.0,0.0,0.0,0.0,-0.058,0.0,0.0,0.0,0.0,0.336,0.034,9.847,0.0,-0.046,0.496,0.0,0.0,0.0,0.0,0.0,0.0,-0.03,0.0,0.0,0.005,0.0,0.0,0.0,-0.062,0.0,0.0,81.265,73.759,0.244,3332.246
4.568,55.511,1973.299,0.0,79.886,-15.086,0.0,0.0,0.0,-0.089,0.996,0.0,0.0,-0.061,1452.352,17057.364,0.0,0.481,-0.0,0.0,0.0,0.0,-0.058,0.0,0.0,0.0,0.0,0.336,0.034,9.846,0.0,-0.046,0.497,0.0,0.0,0.0,0.0,0.0,0.0,-0.03,0.0,0.0,0.005,0.0,0.0,0.0,-0.062,0.0,0.0,81.287,73.78,0.244,3334.132
4.584,56.845,1973.046,0.0,79.893,-15.169,0.0,0.0,0.0,-0.09,0.996,0.0,0.0,-0.061,1469.2,17060.423,0.0,0.481,-0.0,0.0,0.0,0.0,-0.058,0.0,0.0,0.0,0.0,0.336,0.034,9.844,0.0,-0.046,0.497,0.0,0.0,0.0,0.0,0.0,0.0,-0.03,0.0,0.0,0.005,0.0,0.0,0.0,-0.061,0.0,0.0,81.309,73.801,0.244,3336.041
4.601,58.18,1972.792,0.0,79.9,-15.251,0.0,0.0,0.0,-0.09,0.996,0.0,0.0,-0.061,1486.343,17065.91,0.0,0.481,-0.0,0.0,0.0,0.0,-0.058,0.0,0.0,0.0,0.0,0.336,0.034,9.843,0.0,-0.046,0.497,0.0,0.0,0.0,0.0,0.0,0.0,-0.03,0.0,0.0,0.005,0.0,0.0,0.0,-0.061,0.0,0.0,81.332,73.822,0.244,3337.955
4.618,59.506,1972.538,0.0,79.907,-15.333,0.0,0.0,0.0,-0.09,0.996,0.0,0.0,-0.061,1502.79,17067.104,0.0,0.476,-0.0,0.0,0.0,0.0,-0.058,0.0,0.0,0.0,0.0,0.336,0.034,9.841,0.0,-0.046,0.497,0.0,0.0,0.0,0.0,0.0,0.0,-0.03,0.0,0.0,0.005,0.0,0.0,0.0,-0.061,0.0,0.0,81.354,73.844,0.245,3339.877
4.634,60.841,1972.282,0.0,79.915,-15.415,0.0,0.0,0.0,-0.091,0.996,0.0,0.0,-0.061,1519.59,17070.777,0.0,0.476,-0.0,0.0,0.0,0.0,-0.058,0.0,0.0,0.0,0.0,0.336,0.034,9.839,0.0,-0.046,0.497,0.0,0.0,0.0,0.0,0.0,0.0,-0.03,0.0,0.0,0.005,0.0,0.0,0.0,-0.061,0.0,0.0,81.376,73.865,0.245,3341.81
4.652,62.215,1972.016,0.0,79.922,-15.5,0.0,0.0,0.0,-0.092,0.996,0.0,0.0,-0.06,1536.862,17075.721,0.0,0.476,-0.0,0.0,0.0,0.0,-0.058,0.0,0.0,0.0,0.0,0.336,0.034,9.838,0.0,-0.046,0.497,0.0,0.0,0.0,0.0,0.0,0.0,-0.03,0.0,0.0,0.005,0.0,0.0,0.0,-0.06,0.0,0.0,81.4,73.887,0.245,3343.798
4.668,63.502,1971.765,0.0,79.929,-15.579,0.0,0.0,0.0,-0.092,0.996,0.0,0.0,-0.06,1554.226,17083.235,0.0,0.476,-0.0,0.0,0.0,0.0,-0.058,0.0,0.0,0.0,0.0,0.336,0.034,9.838,0.0,-0.046,0.498,0.0,0.0,0.0,0.0,0.0,0.0,-0.03,0.0,0.0,0.005,0.0,0.0,0.0,-0.06,0.0,0.0,81.422,73.909,0.245,3345.766
4.684,64.829,1971.506,0.0,79.937,-15.661,0.0,0.0,0.0,-0.092,0.996,0.0,0.0,-0.06,1569.668,17079.904,0.0,0.47,-0.0,0.0,0.0,0.0,-0.058,0.0,0.0,0.0,0.0,0.335,0.034,9.834,0.0,-0.046,0.498,0.0,0.0,0.0,0.0,0.0,0.0,-0.03,0.0,0.0,0.005,0.0,0.0,0.0,-0.06,0.0,0.0,81.445,73.93,0.245,3347.702
4.701,66.164,1971.244,0.0,79.944,-15.743,0.0,0.0,0.0,-0.093,0.996,0.0,0.0,-0.06,1585.778,17079.15,0.0,0.47,-0.0,0.0,0.0,0.0,-0.058,0.0,0.0,0.0,0.0,0.335,0.034,9.831,0.0,-0.046,0.498,0.0,0.0,0.0,0.0,0.0,0.0,-0.03,0.0,0.0,0.005,0.0,0.0,0.0,-0.06,0.0,0.0,81.468,73.952,0.245,3349.689
4.718,67.499,1970.98,0.0,79.952,-15.826,0.0,0.0,0.0,-0.094,0.996,0.0,0.0,-0.06,1602.716,17083.663,0.0,0.47,-0.0,0.0,0.0,0.0,-0.058,0.0,0.0,0.0,0.0,0.335,0.034,9.83,0.0,-0.046,0.498,0.0,0.0,0.0,0.0,0.0,0.0,-0.03,0.0,0.0,0.005,0.0,0.0,0.0,-0.06,0.0,0.0,81.492,73.974,0.245,3351.702
4.734,68.818,1970.718,0.0,79.96,-15.907,0.0,0.0,0.0,-0.094,0.996,0.0,0.0,-0.059,1618.916,17083.966,0.0,0.464,-0.0,0.0,0.0,0.0,-0.058,0.0,0.0,0.0,0.0,0.335,0.034,9.827,0.0,-0.047,0.498,0.0,0.0,0.0,0.0,0.0,0.0,-0.03,0.0,0.0,0.005,0.0,0.0,0.0,-0.06,0.0,0.0,81.515,73.996,0.245,3353.71
4.751,70.162,1970.451,0.0,79.967,-15.99,0.0,0.0,0.0,-0.094,0.996,0.0,0.0,-0.059,1635.356,17085.62,0.0,0.464,-0.0,0.0,0.0,0.0,-0.058,0.0,0.0,0.0,0.0,0.335,0.034,9.824,0.0,-0.047,0.498,0.0,0.0,0.0,0.0,0.0,0.0,-0.03,0.0,0.0,0.005,0.0,0.0,0.0,-0.059,0.0,0.0,81.538,74.019,0.245,3355.739
4.768,71.497,1970.183,0.0,79.975,-16.072,0.0,0.0,0.0,-0.095,0.996,0.0,0.0,-0.059,1651.786,17086.75,0.0,0.458,-0.0,0.0,0.0,0.0,-0.058,0.0,0.0,0.0,0.0,0.335,0.034,9.822,0.0,-0.047,0.498,0.0,0.0,0.0,0.0,0.0,0.0,-0.03,0.0,0.0,0.005,0.0,0.0,0.0,-0.059,0.0,0.0,81.562,74.041,0.245,3357.791
4.784,72.833,1969.914,0.0,79.983,-16.154,0.0,0.0,0.0,-0.096,0.995,0.0,0.0,-0.059,1668.569,17090.566,0.0,0.458,-0.0,0.0,0.0,0.0,-0.058,0.0,0.0,0.0,0.0,0.334,0.034,9.82,0.0,-0.047,0.498,0.0,0.0,0.0,0.0,0.0,0.0,-0.03,0.0,0.0,0.005,0.0,0.0,0.0,-0.059,0.0,0.0,81.586,74.064,0.245,3359.856
4.801,74.161,1969.645,0.0,79.991,-16.236,0.0,0.0,0.0,-0.096,0.995,0.0,0.0,-0.059,1684.621,17090.068,0.0,0.458,-0.0,0.0,0.0,0.0,-0.058,0.0,0.0,0.0,0.0,0.334,0.034,9.817,0.0,-0.047,0.498,0.0,0.0,0.0,0.0,0.0,0.0,-0.03,0.0,0.0,0.004,0.0,0.0,0.0,-0.059,0.0,0.0,81.61,74.087,0.245,3361.931
4.818,75.497,1969.373,0.0,79.999,-16.318,0.0,0.0,0.0,-0.096,0.995,0.0,0.0,-0.058,1701.095,17092.338,0.0,0.453,-0.0,0.0,0.0,0.0,-0.058,0.0,0.0,0.0,0.0,0.334,0.034,9.815,0.0,-0.047,0.498,0.0,0.0,0.0,0.0,0.0,0.0,-0.03,0.0,0.0,0.004,0.0,0.0,0.0,-0.058,0.0,0.0,81.634,74.11,0.245,3364.016
4.834,76.833,1969.1,0.0,80.008,-16.4,0.0,0.0,0.0,-0.097,0.995,0.0,0.0,-0.058,1717.134,17091.596,0.0,0.453,-0.0,0.0,0.0,0.0,-0.058,0.0,0.0,0.0,0.0,0.334,0.034,9.812,0.0,-0.047,0.498,0.0,0.0,0.0,0.0,0.0,0.0,-0.03,0.0,0.0,0.004,0.0,0.0,0.0,-0.058,0.0,0.0,81.659,74.133,0.246,3366.12
4.851,78.161,1968.827,0.0,80.016,-16.482,0.0,0.0,0.0,-0.098,0.995,0.0,0.0,-0.058,1733.76,17094.944,0.0,0.453,-0.0,0.0,0.0,0.0,-0.058,0.0,0.0,0.0,0.0,0.334,0.034,9.81,0.0,-0.047,0.498,0.0,0.0,0.0,0.0,0.0,0.0,-0.03,0.0,0.0,0.004,0.0,0.0,0.0,-0.058,0.0,0.0,81.683,74.156,0.246,3368.233
4.868,79.489,1968.553,0.0,80.024,-16.564,0.0,0.0,0.0,-0.098,0.995,0.0,0.0,-0.058,1749.415,17092.581,0.0,0.447,-0.0,0.0,0.0,0.0,-0.058,0.0,0.0,0.0,0.0,0.334,0.034,9.806,0.0,-0.047,0.498,0.0,0.0,0.0,0.0,0.0,0.0,-0.03,0.0,0.0,0.004,0.0,0.0,0.0,-0.058,0.0,0.0,81.708,74.18,0.246,3370.35
4.884,80.826,1968.276,0.0,80.032,-16.646,0.0,0.0,0.0,-0.098,0.995,0.0,0.0,-0.058,1765.775,17094.408,0.0,0.447,-0.0,0.0,0.0,0.0,-0.058,0.0,0.0,0.0,0.0,0.334,0.034,9.804,0.0,-0.047,0.498,0.0,0.0,0.0,0.0,0.0,0.0,-0.03,0.0,0.0,0.004,0.0,0.0,0.0,-0.058,0.0,0.0,81.733,74.203,0.246,3372.49
4.901,82.154,1967.998,0.0,80.041,-16.728,0.0,0.0,0.0,-0.099,0.995,0.0,0.0,-0.057,1781.616,17093.085,0.0,0.441,-0.0,0.0,0.0,0.0,-0.058,0.0,0.0,0.0,0.0,0.333,0.034,9.8,0.0,-0.047,0.498,0.0,0.0,0.0,0.0,0.0,0.0,-0.03,0.0,0.0,0.004,0.0,0.0,0.0,-0.058,0.0,0.0,81.758,74.227,0.246,3374.641
4.918,83.491,1967.718,0.0,80.05,-16.81,0.0,0.0,0.0,-0.1,0.995,0.0,0.0,-0.057,1797.921,17094.691,0.0,0.441,-0.0,0.0,0.0,0.0,-0.058,0.0,0.0,0.0,0.0,0.333,0.034,9.798,0.0,-0.047,0.499,0.0,0.0,0.0,0.0,0.0,0.0,-0.03,0.0,0.0,0.004,0.0,0.0,0.0,-0.057,0.0,0.0,81.783,74.251,0.246,3376.804
4.934,84.828,1967.437,0.0,80.058,-16.892,0.0,0.0,0.0,-0.1,0.995,0.0,0.0,-0.057,1813.735,17093.111,0.0,0.441,-0.0,0.0,0.0,0.0,-0.058,0.0,0.0,0.0,0.0,0.333,0.034,9.794,0.0,-0.047,0.499,0.0,0.0,0.0,0.0,0.0,0.0,-0.03,0.0,0.0,0.004,0.0,0.0,0.0,-0.057,0.0,0.0,81.808,74.275,0.246,3378.993
4.951,86.165,1967.154,0.0,80.067,-16.974,0.0,0.0,0.0,-0.1,0.995,0.0,0.0,-0.057,1830.234,17095.783,0.0,0.435,-0.0,0.0,0.0,0.0,-0.058,0.0,0.0,0.0,0.0,0.333,0.034,9.792,0.0,-0.047,0.499,0.0,0.0,0.0,0.0,0.0,0.0,-0.03,0.0,0.0,0.004,0.0,0.0,0.0,-0.057,0.0,0.0,81.834,74.299,0.246,3381.197
4.968,87.494,1966.872,0.0,80.076,-17.056,0.0,0.0,0.0,-0.101,0.995,0.0,0.0,-0.057,1845.921,17093.886,0.0,0.435,-0.0,0.0,0.0,0.0,-0.058,0.0,0.0,0.0,0.0,0.333,0.034,9.788,0.0,-0.047,0.499,0.0,0.0,0.0,0.0,0.0,0.0,-0.03,0.0,0.0,0.004,0.0,0.0,0.0,-0.057,0.0,0.0,81.859,74.323,0.246,3383.402
4.984,88.832,1966.586,0.0,80.085,-17.138,0.0,0.0,0.0,-0.102,0.995,0.0,0.0,-0.056,1862.09,17095.01,0.0,0.43,-0.0,0.0,0.0,0.0,-0.058,0.0,0.0,0.0,0.0,0.332,0.034,9.785,0.0,-0.047,0.499,0.0,0.0,0.0,0.0,0.0,0.0,-0.03,0.0,0.0,0.004,0.0,0.0,0.0,-0.056,0.0,0.0,81.885,74.348,0.246,3385.627
5.001,90.169,1966.3,0.0,80.094,-17.22,0.0,0.0,0.0,-0.102,0.995,0.0,0.0,-0.056,1877.746,17092.854,0.0,0.43,-0.0,0.0,0.0,0.0,-0.058,0.0,0.0,0.0,0.0,0.332,0.034,9.781,0.0,-0.047,0.499,0.0,0.0,0.0,0.0,0.0,0.0,-0.03,0.0,0.0,0.004,0.0,0.0,0.0,-0.056,0.0,0.0,81.911,74.372,0.246,3387.87
5.018,91.499,1966.013,0.0,80.103,-17.302,0.0,0.0,0.0,-0.102,0.995,0.0,0.0,-0.056,1894.063,17094.999,0.0,0.424,-0.0,0.0,0.0,0.0,-0.058,0.0,0.0,0.0,0.0,0.332,0.034,9.779,0.0,-0.047,0.499,0.0,0.0,0.0,0.0,0.0,0.0,-0.03,0.0,0.0,0.004,0.0,0.0,0.0,-0.056,0.0,0.0,81.937,74.397,0.246,3390.122
5.034,92.836,1965.723,0.0,80.112,-17.384,0.0,0.0,0.0,-0.103,0.995,0.0,0.0,-0.056,1909.364,17091.247,0.0,0.424,-0.0,0.0,0.0,0.0,-0.058,0.0,0.0,0.0,0.0,0.332,0.034,9.774,0.0,-0.047,0.499,0.0,0.0,0.0,0.0,0.0,0.0,-0.03,0.0,0.0,0.004,0.0,0.0,0.0,-0.056,0.0,0.0,81.963,74.422,0.246,3392.385
5.051,94.174,1965.432,0.0,80.121,-17.466,0.0,0.0,0.0,-0.104,0.995,0.0,0.0,-0.056,1925.674,17093.197,0.0,0.418,-0.0,0.0,0.0,0.0,-0.058,0.0,0.0,0.0,0.0,0.332,0.034,9.772,0.0,-0.047,0.499,0.0,0.0,0.0,0.0,0.0,0.0,-0.03,0.0,0.0,0.004,0.0,0.0,0.0,-0.056,0.0,0.0,81.989,74.447,0.246,3394.666
5.068,95.504,1965.142,0.0,80.13,-17.548,0.0,0.0,0.0,-0.104,0.995,0.0,0.0,-0.055,1941.104,17090.399,0.0,0.418,-0.0,0.0,0.0,0.0,-0.058,0.0,0.0,0.0,0.0,0.331,0.034,9.768,0.0,-0.047,0.499,0.0,0.0,0.0,0.0,0.0,0.0,-0.03,0.0,0.0,0.004,0.0,0.0,0.0,-0.056,0.0,0.0,82.016,74.472,0.246,3396.957
5.084,96.843,1964.848,0.0,80.139,-17.63,0.0,0.0,0.0,-0.104,0.994,0.0,0.0,-0.055,1957.07,17090.801,0.0,0.413,-0.0,0.0,0.0,0.0,-0.058,0.0,0.0,0.0,0.0,0.331,0.034,9.765,0.0,-0.048,0.499,0.0,0.0,0.0,0.0,0.0,0.0,-0.03,0.0,0.0,0.004,0.0,0.0,0.0,-0.055,0.0,0.0,82.042,74.497,0.247,3399.259
5.101,98.173,1964.555,0.0,80.149,-17.712,0.0,0.0,0.0,-0.105,0.994,0.0,0.0,-0.055,1972.415,17087.706,0.0,0.413,-0.0,0.0,0.0,0.0,-0.058,0.0,0.0,0.0,0.0,0.331,0.034,9.76,0.0,-0.048,0.499,0.0,0.0,0.0,0.0,0.0,0.0,-0.03,0.0,0.0,0.004,0.0,0.0,0.0,-0.055,0.0,0.0,82.069,74.522,0.247,3401.572
5.118,99.512,1964.258,0.0,80.158,-17.794,0.0,0.0,0.0,-0.106,0.994,0.0,0.0,-0.055,1988.302,17087.848,0.0,0.407,-0.0,0.0,0.0,0.0,-0.058,0.0,0.0,0.0,0.0,0.331,0.034,9.757,0.0,-0.048,0.499,0.0,0.0,0.0,0.0,0.0,0.0,-0.03,0.0,0.0,0.004,0.0,0.0,0.0,-0.055,0.0,0.0,82.096,74.548,0.247,3403.905
5.134,100.842,1963.962,0.0,80.168,-17.876,0.0,0.0,0.0,-0.106,0.994,0.0,0.0,-0.055,2003.549,17084.434,0.0,0.407,-0.0,0.0,0.0,0.0,-0.058,0.0,0.0,0.0,0.0,0.33,0.034,9.753,0.0,-0.048,0.499,0.0,0.0,0.0,0.0,0.0,0.0,-0.03,0.0,0.0,0.004,0.0,0.0,0.0,-0.055,0.0,0.0,82.123,74.574,0.247,3406.25
5.151,102.181,1963.663,0.0,80.177,-17.958,0.0,0.0,0.0,-0.106,0.994,0.0,0.0,-0.054,2019.432,17084.6,0.0,0.401,-0.0,0.0,0.0,0.0,-0.058,0.0,0.0,0.0,0.0,0.33,0.034,9.75,0.0,-0.048,0.499,0.0,0.0,0.0,0.0,0.0,0.0,-0.03,0.0,0.0,0.004,0.0,0.0,0.0,-0.054,0.0,0.0,82.15,74.599,0.247,3408.608
5.168,103.536,1963.359,0.0,80.187,-18.041,0.0,0.0,0.0,-0.107,0.994,0.0,0.0,-0.054,2042.722,17125.47,0.0,0.413,-0.0,0.0,0.0,0.0,-0.058,0.0,0.0,0.0,0.0,0.331,0.034,9.76,0.0,-0.048,0.5,0.0,0.0,0.0,0.0,0.0,0.0,-0.03,0.0,0.0,0.004,0.0,0.0,0.0,-0.054,0.0,0.0,82.178,74.626,0.247,3410.998
5.184,104.86,1963.06,0.0,80.197,-18.122,0.0,0.0,0.0,-0.107,0.994,0.0,0.0,-0.054,2059.083,17128.301,0.0,0.407,-0.0,0.0,0.0,0.0,-0.058,0.0,0.0,0.0,0.0,0.331,0.034,9.757,0.0,-0.048,0.5,0.0,0.0,0.0,0.0,0.0,0.0,-0.03,0.0,0.0,0.004,0.0,0.0,0.0,-0.054,0.0,0.0,82.205,74.652,0.247,3413.391
5.201,106.191,1962.759,0.0,80.207,-18.204,0.0,0.0,0.0,-0.108,0.994,0.0,0.0,-0.054,2081.538,17165.624,0.0,0.418,-0.0,0.0,0.0,0.0,-0.058,0.0,0.0,0.0,0.0,0.331,0.034,9.766,0.0,-0.048,0.501,0.0,0.0,0.0,0.0,0.0,0.0,-0.03,0.0,0.0,0.004,0.0,0.0,0.0,-0.054,0.0,0.0,82.233,74.678,0.247,3415.774
5.217,107.522,1962.456,0.0,80.217,-18.285,0.0,0.0,0.0,-0.108,0.994,0.0,0.0,-0.054,2105.033,17208.343,0.0,0.424,-0.0,0.0,0.0,0.0,-0.058,0.0,0.0,0.0,0.0,0.332,0.034,9.777,0.0,-0.048,0.503,0.0,0.0,0.0,0.0,0.0,0.0,-0.03,0.0,0.0,0.004,0.0,0.0,0.0,-0.054,0.0,0.0,82.261,74.704,0.247,3418.18
5.234,108.87,1962.148,0.0,80.227,-18.367,0.0,0.0,0.0,-0.109,0.994,0.0,0.0,-0.053,2127.676,17245.746,0.0,0.43,-0.0,0.0,0.0,0.0,-0.058,0.0,0.0,0.0,0.0,0.332,0.034,9.786,0.0,-0.048,0.504,0.0,0.0,0.0,0.0,0.0,0.0,-0.03,0.0,0.0,0.004,0.0,0.0,0.0,-0.054,0.0,0.0,82.289,74.731,0.247,3420.612
5.251,110.21,1961.841,0.0,80.237,-18.448,0.0,0.0,0.0,-0.109,0.994,0.0,0.0,-0.053,2143.498,17245.565,0.0,0.43,-0.0,0.0,0.0,0.0,-0.058,0.0,0.0,0.0,0.0,0.332,0.034,9.783,0.0,-0.048,0.504,0.0,0.0,0.0,0.0,0.0,0.0,-0.03,0.0,0.0,0.004,0.0,0.0,0.0,-0.053,0.0,0.0,82.317,74.757,0.247,3423.062
5.268,111.542,1961.534,0.0,80.248,-18.529,0.0,0.0,0.0,-0.109,0.994,0.0,0.0,-0.053,2166.202,17283.329,0.0,0.435,-0.0,0.0,0.0,0.0,-0.058,0.0,0.0,0.0,0.0,0.333,0.034,9.792,0.0,-0.048,0.505,0.0,0.0,0.0,0.0,0.0,0.0,-0.03,0.0,0.0,0.004,0.0,0.0,0.0,-0.053,0.0,0.0,82.345,74.784,0.248,3425.51
5.284,112.898,1961.22,0.0,80.258,-18.611,0.0,0.0,0.0,-0.11,0.994,0.0,0.0,-0.053,2189.581,17324.197,0.0,0.441,-0.0,0.0,0.0,0.0,-0.058,0.0,0.0,0.0,0.0,0.333,0.034,9.802,0.0,-0.048,0.506,0.0,0.0,0.0,0.0,0.0,0.0,-0.03,0.0,0.0,0.004,0.0,0.0,0.0,-0.053,0.0,0.0,82.373,74.811,0.248,3427.988
5.301,114.223,1960.912,0.0,80.269,-18.691,0.0,0.0,0.0,-0.11,0.994,0.0,0.0,-0.053,2212.501,17362.707,0.0,0.453,-0.0,0.0,0.0,0.0,-0.058,0.0,0.0,0.0,0.0,0.334,0.034,9.811,0.0,-0.048,0.508,0.0,0.0,0.0,0.0,0.0,0.0,-0.03,0.0,0.0,0.004,0.0,0.0,0.0,-0.053,0.0,0.0,82.402,74.838,0.248,3430.473
5.318,115.555,1960.602,0.0,80.279,-18.772,0.0,0.0,0.0,-0.111,0.994,0.0,0.0,-0.053,2235.207,17400.685,0.0,0.458,-0.0,0.0,0.0,0.0,-0.058,0.0,0.0,0.0,0.0,0.334,0.034,9.82,0.0,-0.048,0.509,0.0,0.0,0.0,0.0,0.0,0.0,-0.03,0.0,0.0,0.004,0.0,0.0,0.0,-0.053,0.0,0.0,82.43,74.865,0.248,3432.944
5.334,116.904,1960.286,0.0,80.29,-18.853,0.0,0.0,0.0,-0.111,0.994,0.0,0.0,-0.053,2258.21,17439.423,0.0,0.464,-0.0,0.0,0.0,0.0,-0.058,0.0,0.0,0.0,0.0,0.335,0.034,9.829,0.0,-0.048,0.51,0.0,0.0,0.0,0.0,0.0,0.0,-0.03,0.0,0.0,0.003,0.0,0.0,0.0,-0.053,0.0,0.0,82.459,74.893,0.248,3435.452
5.351,118.237,1959.972,0.0,80.301,-18.932,0.0,0.0,0.0,-0.111,0.994,0.0,0.0,-0.052,2280.571,17474.742,0.0,0.47,-0.0,0.0,0.0,0.0,-0.058,0.0,0.0,0.0,0.0,0.336,0.034,9.837,0.0,-0.048,0.511,0.0,0.0,0.0,0.0,0.0,0.0,-0.03,0.0,0.0,0.003,0.0,0.0,0.0,-0.052,0.0,0.0,82.488,74.92,0.248,3437.968
5.368,119.578,1959.655,0.0,80.312,-19.013,0.0,0.0,0.0,-0.112,0.994,0.0,0.0,-0.052,2303.295,17512.123,0.0,0.476,-0.0,0.0,0.0,0.0,-0.058,0.0,0.0,0.0,0.0,0.336,0.034,9.845,0.0,-0.048,0.512,0.0,0.0,0.0,0.0,0.0,0.0,-0.03,0.0,0.0,0.003,0.0,0.0,0.0,-0.052,0.0,0.0,82.517,74.948,0.248,3440.492
5.384,120.911,1959.339,0.0,80.323,-19.092,0.0,0.0,0.0,-0.112,0.994,0.0,0.0,-0.052,2325.189,17545.081,0.0,0.481,-0.0,0.0,0.0,0.0,-0.058,0.0,0.0,0.0,0.0,0.336,0.034,9.852,0.0,-0.048,0.513,0.0,0.0,0.0,0.0,0.0,0.0,-0.03,0.0,0.0,0.003,0.0,0.0,0.0,-0.052,0.0,0.0,82.546,74.975,0.248,3443.031
5.401,122.253,1959.019,0.0,80.334,-19.172,0.0,0.0,0.0,-0.113,0.994,0.0,0.0,-0.052,2347.754,17581.433,0.0,0.487,-0.0,0.0,0.0,0.0,-0.058,0.0,0.0,0.0,0.0,0.337,0.034,9.861,0.0,-0.048,0.515,0.0,0.0,0.0,0.0,0.0,0.0,-0.03,0.0,0.0,0.003,0.0,0.0,0.0,-0.052,0.0,0.0,82.575,75.003,0.248,3445.58
5.418,123.586,1958.7,0.0,80.345,-19.252,0.0,0.0,0.0,-0.113,0.994,0.0,0.0,-0.052,2369.472,17613.321,0.0,0.493,-0.0,0.0,0.0,0.0,-0.058,0.0,0.0,0.0,0.0,0.337,0.034,9.867,0.0,-0.048,0.516,0.0,0.0,0.0,0.0,0.0,0.0,-0.03,0.0,0.0,0.003,0.0,0.0,0.0,-0.052,0.0,0.0,82.605,75.031,0.248,3448.143
5.434,124.936,1958.376,0.0,80.357,-19.332,0.0,0.0,0.0,-0.113,0.994,0.0,0.0,-0.052,2391.93,17648.697,0.0,0.498,-0.0,0.0,0.0,0.0,-0.058,0.0,0.0,0.0,0.0,0.338,0.034,9.875,0.0,-0.048,0.517,0.0,0.0,0.0,0.0,0.0,0.0,-0.03,0.0,0.0,0.003,0.0,0.0,0.0,-0.052,0.0,0.0,82.634,75.059,0.248,3450.724
5.451,126.27,1958.055,0.0,80.368,-19.41,0.0,0.0,0.0,-0.114,0.994,0.0,0.0,-0.052,2413.688,17680.518,0.0,0.504,-0.0,0.0,0.0,0.0,-0.058,0.0,0.0,0.0,0.0,0.338,0.034,9.882,0.0,-0.048,0.518,0.0,0.0,0.0,0.0,0.0,0.0,-0.03,0.0,0.0,0.003,0.0,0.0,0.0,-0.052,0.0,0.0,82.664,75.087,0.248,3453.321
5.468,127.612,1957.73,0.0,80.38,-19.49,0.0,0.0,0.0,-0.114,0.994,0.0,0.0,-0.052,2435.842,17714.528,0.0,0.51,-0.0,0.0,0.0,0.0,-0.058,0.0,0.0,0.0,0.0,0.339,0.034,9.889,0.0,-0.048,0.519,0.0,0.0,0.0,0.0,0.0,0.0,-0.03,0.0,0.0,0.003,0.0,0.0,0.0,-0.052,0.0,0.0,82.694,75.115,0.249,3455.917
5.484,128.947,1957.406,0.0,80.391,-19.568,0.0,0.0,0.0,-0.115,0.993,0.0,0.0,-0.052,2458.116,17749.117,0.0,0.516,-0.0,0.0,0.0,0.0,-0.058,0.0,0.0,0.0,0.0,0.339,0.034,9.896,0.0,-0.048,0.52,0.0,0.0,0.0,0.0,0.0,0.0,-0.03,0.0,0.0,0.003,0.0,0.0,0.0,-0.052,0.0,0.0,82.724,75.144,0.249,3458.528
5.501,130.29,1957.078,0.0,80.403,-19.647,0.0,0.0,0.0,-0.115,0.993,0.0,0.0,-0.052,2479.074,17776.94,0.0,0.521,-0.0,0.0,0.0,0.0,-0.058,0.0,0.0,0.0,0.0,0.339,0.034,9.901,0.0,-0.048,0.521,0.0,0.0,0.0,0.0,0.0,0.0,-0.03,0.0,0.0,0.003,0.0,0.0,0.0,-0.052,0.0,0.0,82.754,75.172,0.249,3461.157
5.518,131.632,1956.75,0.0,80.415,-19.726,0.0,0.0,0.0,-0.115,0.993,0.0,0.0,-0.052,2501.222,17810.542,0.0,0.527,-0.0,0.0,0.0,0.0,-0.058,0.0,0.0,0.0,0.0,0.34,0.034,9.908,0.0,-0.048,0.522,0.0,0.0,0.0,0.0,0.0,0.0,-0.03,0.0,0.0,0.002,0.0,0.0,0.0,-0.052,0.0,0.0,82.784,75.201,0.249,3463.8
5.534,132.967,1956.421,0.0,80.427,-19.804,0.0,0.0,0.0,-0.116,0.993,0.0,0.0,-0.051,2522.234,17838.526,0.0,0.533,-0.0,0.0,0.0,0.0,-0.058,0.0,0.0,0.0,0.0,0.34,0.034,9.914,0.0,-0.048,0.523,0.0,0.0,0.0,0.0,0.0,0.0,-0.03,0.0,0.0,0.002,0.0,0.0,0.0,-0.052,0.0,0.0,82.814,75.23,0.249,3466.448
5.551,134.31,1956.09,0.0,80.439,-19.883,0.0,0.0,0.0,-0.116,0.993,0.0,0.0,-0.051,2543.951,17870.05,0.0,0.533,-0.0,0.0,0.0,0.0,-0.058,0.0,0.0,0.0,0.0,0.341,0.034,9.92,0.0,-0.048,0.524,0.0,0.0,0.0,0.0,0.0,0.0,-0.03,0.0,0.0,0.002,0.0,0.0,0.0,-0.051,0.0,0.0,82.845,75.259,0.249,3469.114
5.568,135.654,1955.757,0.0,80.451,-19.961,0.0,0.0,0.0,-0.117,0.993,0.0,0.0,-0.051,2564.809,17896.998,0.0,0.539,-0.0,0.0,0.0,0.0,-0.058,0.0,0.0,0.0,0.0,0.341,0.034,9.925,0.0,-0.048,0.525,0.0,0.0,0.0,0.0,0.0,0.0,-0.03,0.0,0.0,0.002,0.0,0.0,0.0,-0.051,0.0,0.0,82.875,75.288,0.249,3471.794
5.584,136.99,1955.425,0.0,80.464,-20.039,0.0,0.0,0.0,-0.117,0.993,0.0,0.0,-0.051,2586.591,17928.722,0.0,0.544,-0.0,0.0,0.0,0.0,-0.058,0.0,0.0,0.0,0.0,0.341,0.034,9.931,0.0,-0.048,0.526,0.0,0.0,0.0,0.0,0.0,0.0,-0.03,0.0,0.0,0.002,0.0,0.0,0.0,-0.051,0.0,0.0,82.906,75.317,0.249,3474.48
5.601,138.333,1955.09,0.0,80.476,-20.117,0.0,0.0,0.0,-0.117,0.993,0.0,0.0,-0.051,2606.986,17953.541,0.0,0.55,-0.0,0.0,0.0,0.0,-0.058,0.0,0.0,0.0,0.0,0.342,0.034,9.935,0.0,-0.048,0.526,0.0,0.0,0.0,0.0,0.0,0.0,-0.03,0.0,0.0,0.002,0.0,0.0,0.0,-0.051,0.0,0.0,82.937,75.346,0.249,3477.184
5.618,139.669,1954.755,0.0,80.489,-20.194,0.0,0.0,0.0,-0.118,0.993,0.0,0.0,-0.051,2628.565,17984.212,0.0,0.55,-0.0,0.0,0.0,0.0,-0.058,0.0,0.0,0.0,0.0,0.342,0.034,9.941,0.0,-0.048,0.527,0.0,0.0,0.0,0.0,0.0,0.0,-0.03,0.0,0.0,0.002,0.0,0.0,0.0,-0.051,0.0,0.0,82.968,75.375,0.249,3479.893
5.634,141.014,1954.418,0.0,80.501,-20.272,0.0,0.0,0.0,-0.118,0.993,0.0,0.0,-0.051,2648.733,18007.931,0.0,0.556,-0.0,0.0,0.0,0.0,-0.058,0.0,0.0,0.0,0.0,0.342,0.034,9.945,0.0,-0.048,0.528,0.0,0.0,0.0,0.0,0.0,0.0,-0.03,0.0,0.0,0.002,0.0,0.0,0.0,-0.051,0.0,0.0,82.999,75.405,0.25,3482.621
5.651,142.35,1954.08,0.0,80.514,-20.349,0.0,0.0,0.0,-0.119,0.993,0.0,0.0,-0.051,2670.102,18037.544,0.0,0.561,-0.0,0.0,0.0,0.0,-0.058,0.0,0.0,0.0,0.0,0.342,0.034,9.95,0.0,-0.048,0.529,0.0,0.0,0.0,0.0,0.0,0.0,-0.03,0.0,0.0,0.002,0.0,0.0,0.0,-0.051,0.0,0.0,83.03,75.435,0.25,3485.354
5.668,143.695,1953.74,0.0,80.527,-20.427,0.0,0.0,0.0,-0.119,0.993,0.0,0.0,-0.051,2690.036,18060.16,0.0,0.561,-0.0,0.0,0.0,0.0,-0.058,0.0,0.0,0.0,0.0,0.343,0.034,9.953,0.0,-0.048,0.53,0.0,0.0,0.0,0.0,0.0,0.0,-0.03,0.0,0.0,0.002,0.0,0.0,0.0,-0.051,0.0,0.0,83.061,75.464,0.25,3488.106
5.684,145.04,1953.398,0.0,80.54,-20.504,0.0,0.0,0.0,-0.119,0.993,0.0,0.0,-0.05,2711.321,18089.033,0.0,0.567,-0.0,0.0,0.0,0.0,-0.058,0.0,0.0,0.0,0.0,0.343,0.034,9.959,0.0,-0.048,0.531,0.0,0.0,0.0,0.0,0.0,0.0,-0.03,0.0,0.0,0.002,0.0,0.0,0.0,-0.051,0.0,0.0,83.093,75.494,0.25,3490.873
5.701,146.377,1953.057,0.0,80.553,-20.581,0.0,0.0,0.0,-0.12,0.993,0.0,0.0,-0.05,2731.364,18112.07,0.0,0.567,-0.0,0.0,0.0,0.0,-0.058,0.0,0.0,0.0,0.0,0.343,0.034,9.962,0.0,-0.048,0.532,0.0,0.0,0.0,0.0,0.0,0.0,-0.03,0.0,0.0,0.002,0.0,0.0,0.0,-0.05,0.0,0.0,83.124,75.524,0.25,3493.645
5.718,147.722,1952.713,0.0,80.566,-20.659,0.0,0.0,0.0,-0.12,0.993,0.0,0.0,-0.05,2752.172,18138.839,0.0,0.573,-0.0,0.0,0.0,0.0,-0.058,0.0,0.0,0.0,0.0,0.344,0.034,9.966,0.0,-0.048,0.532,0.0,0.0,0.0,0.0,0.0,0.0,-0.03,0.0,0.0,0.002,0.0,0.0,0.0,-0.05,0.0,0.0,83.156,75.554,0.25,3496.436
5.734,149.068,1952.367,0.0,80.579,-20.736,0.0,0.0,0.0,-0.121,0.993,0.0,0.0,-0.05,2772.027,18160.815,0.0,0.573,-0.0,0.0,0.0,0.0,-0.058,0.0,0.0,0.0,0.0,0.344,0.034,9.97,0.0,-0.048,0.533,0.0,0.0,0.0,0.0,0.0,0.0,-0.03,0.0,0.0,0.002,0.0,0.0,0.0,-0.05,0.0,0.0,83.188,75.585,0.25,3499.24
5.751,150.405,1952.022,0.0,80.592,-20.812,0.0,0.0,0.0,-0.121,0.993,0.0,0.0,-0.05,2792.881,18187.774,0.0,0.579,-0.0,0.0,0.0,0.0,-0.058,0.0,0.0,0.0,0.0,0.344,0.034,9.974,0.0,-0.048,0.534,0.0,0.0,0.0,0.0,0.0,0.0,-0.03,0.0,0.0,0.002,0.0,0.0,0.0,-0.05,0.0,0.0,83.22,75.615,0.25,3502.048
5.768,151.759,1951.672,0.0,80.606,-20.89,0.0,0.0,0.0,-0.121,0.993,0.0,0.0,-0.05,2813.451,18213.155,0.0,0.584,-0.0,0.0,0.0,0.0,-0.058,0.0,0.0,0.0,0.0,0.344,0.034,9.978,0.0,-0.048,0.535,0.0,0.0,0.0,0.0,0.0,0.0,-0.03,0.0,0.0,0.002,0.0,0.0,0.0,-0.05,0.0,0.0,83.252,75.646,0.25,3504.875
5.784,153.098,1951.324,0.0,80.619,-20.966,0.0,0.0,0.0,-0.122,0.993,0.0,0.0,-0.05,2833.237,18234.84,0.0,0.584,-0.0,0.0,0.0,0.0,-0.058,0.0,0.0,0.0,0.0,0.344,0.034,9.981,0.0,-0.048,0.536,0.0,0.0,0.0,0.0,0.0,0.0,-0.03,0.0,0.0,0.002,0.0,0.0,0.0,-0.05,0.0,0.0,83.284,75.676,0.25,3507.718
5.801,154.436,1950.976,0.0,80.632,-21.042,0.0,0.0,0.0,-0.122,0.992,0.0,0.0,-0.05,2853.532,18259.318,0.0,0.584,-0.0,0.0,0.0,0.0,-0.058,0.0,0.0,0.0,0.0,0.345,0.034,9.984,0.0,-0.048,0.536,0.0,0.0,0.0,0.0,0.0,0.0,-0.03,0.0,0.0,0.002,0.0,0.0,0.0,-0.05,0.0,0.0,83.317,75.707,0.25,3510.554
5.818,155.783,1950.624,0.0,80.646,-21.119,0.0,0.0,0.0,-0.123,0.992,0.0,0.0,-0.05,2872.621,18277.901,0.0,0.59,-0.0,0.0,0.0,0.0,-0.058,0.0,0.0,0.0,0.0,0.345,0.034,9.986,0.0,-0.048,0.537,0.0,0.0,0.0,0.0,0.0,0.0,-0.03,0.0,0.0,0.002,0.0,0.0,0.0,-0.05,0.0,0.0,83.349,75.738,0.25,3513.412
5.834,157.13,1950.27,0.0,80.66,-21.195,0.0,0.0,0.0,-0.123,0.992,0.0,0.0,-0.05,2893.129,18302.905,0.0,0.59,-0.0,0.0,0.0,0.0,-0.058,0.0,0.0,0.0,0.0,0.345,0.034,9.99,0.0,-0.048,0.538,0.0,0.0,0.0,0.0,0.0,0.0,-0.03,0.0,0.0,0.001,0.0,0.0,0.0,-0.05,0.0,0.0,83.382,75.769,0.251,3516.293
5.851,158.469,1949.918,0.0,80.674,-21.271,0.0,0.0,0.0,-0.123,0.992,0.0,0.0,-0.05,2912.22,18321.6,0.0,0.59,-0.0,0.0,0.0,0.0,-0.058,0.0,0.0,0.0,0.0,0.345,0.034,9.992,0.0,-0.048,0.538,0.0,0.0,0.0,0.0,0.0,0.0,-0.03,0.0,0.0,0.001,0.0,0.0,0.0,-0.05,0.0,0.0,83.415,75.8,0.251,3519.176
5.868,159.832,1949.558,0.0,80.687,-21.351,0.0,0.0,0.0,-0.124,0.992,0.0,0.0,-0.048,2800.12,17733.446,0.0,0.596,-0.0,0.068,0.0,0.0,0.01,0.0,0.0,0.0,0.0,0.334,0.034,9.805,0.0,-0.048,0.521,0.0,0.0,0.0,0.0,0.0,0.0,0.005,0.0,0.0,0.036,0.0,0.0,0.0,-0.049,0.0,0.0,83.448,75.831,0.251,3522.095
5.884,161.164,1949.205,0.0,80.7,-21.432,0.0,0.0,0.0,-0.124,0.992,0.0,0.0,-0.045,2691.995,17170.081,0.0,0.607,-0.0,0.134,0.0,0.0,0.076,0.0,0.0,0.0,0.0,0.323,0.034,9.616,0.0,-0.047,0.504,0.0,0.0,0.0,0.0,0.0,0.0,0.039,0.0,0.0,0.07,0.0,0.0,0.0,-0.047,0.0,0.0,83.481,75.863,0.251,3525.027
5.901,162.503,1948.848,0.0,80.712,-21.516,0.0,0.0,0.0,-0.124,0.992,0.0,0.0,-0.041,2584.525,16616.413,0.0,0.619,-0.0,0.2,0.0,0.0,0.142,0.0,0.0,0.0,0.0,0.312,0.033,9.421,0.0,-0.046,0.488,0.0,0.0,0.0,0.0,0.0,0.0,0.074,0.0,0.0,0.104,0.0,0.0,0.0,-0.043,0.0,0.0,83.514,75.894,0.251,3527.96
5.918,163.851,1948.488,0.0,80.724,-21.603,0.0,0.0,0.0,-0.125,0.992,0.0,0.0,-0.035,2486.911,16112.462,0.0,0.642,-0.0,0.266,0.0,0.0,0.209,0.0,0.0,0.0,0.0,0.302,0.033,9.235,0.0,-0.046,0.473,0.0,0.0,0.0,0.0,0.0,0.0,0.108,0.0,0.0,0.137,0.0,0.0,0.0,-0.038,0.0,0.0,83.548,75.926,0.251,3530.935
5.934,165.2,1948.127,0.0,80.736,-21.692,0.0,0.0,0.0,-0.125,0.992,0.0,0.0,-0.028,2392.306,15627.089,0.0,0.67,-0.0,0.334,0.0,0.0,0.276,0.0,0.0,0.0,0.0,0.292,0.032,9.048,0.0,-0.045,0.458,0.0,0.0,0.0,0.0,0.0,0.0,0.143,0.0,0.0,0.17,0.0,0.0,0.0,-0.032,0.0,0.0,83.582,75.958,0.251,3533.942
5.951,166.556,1947.762,0.0,80.747,-21.784,0.0,0.0,0.0,-0.125,0.992,0.0,0.0,-0.02,2297.157,15144.49,0.0,0.699,-0.0,0.4,0.0,0.0,0.343,0.0,0.0,0.0,0.0,0.283,0.032,8.854,0.0,-0.045,0.444,0.0,0.0,0.0,0.0,0.0,0.0,0.177,0.0,0.0,0.204,0.0,0.0,0.0,-0.024,0.0,0.0,83.616,75.991,0.251,3536.975
5.968,167.888,1947.401,0.0,80.757,-21.876,0.0,0.0,0.0,-0.125,0.992,0.0,0.0,-0.01,2217.455,14734.402,0.0,0.745,-0.0,0.467,0.0,0.0,0.409,0.0,0.0,0.0,0.0,0.275,0.032,8.684,0.0,-0.044,0.432,0.0,0.0,0.0,0.0,0.0,0.0,0.212,0.0,0.0,0.236,0.0,0.0,0.0,-0.015,0.0,0.0,83.651,76.024,0.251,3540.012
5.984,169.237,1947.035,0.0,80.767,-21.972,0.0,0.0,0.0,-0.125,0.992,0.0,0.0,0.0,2147.465,14370.45,0.0,0.808,-0.0,0.534,0.0,0.0,0.476,0.0,0.0,0.0,0.0,0.268,0.031,8.527,0.0,-0.044,0.421,0.0,0.0,0.0,0.0,0.0,0.0,0.246,0.0,0.0,0.268,0.0,0.0,0.0,-0.005,0.0,0.0,83.685,76.057,0.252,3543.068
6.001,170.578,1946.67,0.0,80.777,-22.068,0.0,0.0,0.0,-0.125,0.992,0.0,0.0,0.013,2090.738,14066.392,0.0,0.877,-0.0,0.6,0.0,0.0,0.542,0.0,0.0,0.0,0.0,0.262,0.031,8.392,0.0,-0.043,0.412,0.0,0.0,0.0,0.0,0.0,0.0,0.28,0.0,0.0,0.3,0.0,0.0,0.0,0.007,0.0,0.0,83.72,76.09,0.252,3546.144
6.018,171.935,1946.298,0.0,80.787,-22.166,0.0,0.0,0.0,-0.125,0.992,0.0,0.0,0.026,2044.758,13810.405,0.0,0.968,-0.0,0.667,0.0,0.0,0.609,0.0,0.0,0.0,0.0,0.257,0.031,8.276,0.0,-0.042,0.404,0.0,0.0,0.0,0.0,0.0,0.0,0.315,0.0,0.0,0.332,0.0,0.0,0.0,0.02,0.0,0.0,83.755,76.123,0.252,3549.254
6.034,173.276,1945.929,0.0,80.796,-22.264,0.0,0.0,0.0,-0.125,0.992,0.0,0.0,0.041,2012.595,13614.642,0.0,1.066,-0.0,0.734,0.0,0.0,0.676,0.0,0.0,0.0,0.0,0.253,0.031,8.184,0.0,-0.042,0.399,0.0,0.0,0.0,0.0,0.0,0.0,0.35,0.0,0.0,0.363,0.0,0.0,0.0,0.034,0.0,0.0,83.79,76.156,0.252,3552.382
6.051,174.617,1945.559,0.0,80.806,-22.363,0.0,0.0,0.0,-0.124,0.992,0.0,0.0,0.057,1993.568,13475.593,0.0,1.18,-0.0,0.8,0.0,0.0,0.742,0.0,0.0,0.0,0.0,0.25,0.031,8.117,0.0,-0.041,0.395,0.0,0.0,0.0,0.0,0.0,0.0,0.384,0.0,0.0,0.393,0.0,0.0,0.0,0.049,0.0,0.0,83.826,76.19,0.252,3555.508
6.068,175.975,1945.182,0.0,80.816,-22.464,0.0,0.0,0.0,-0.124,0.992,0.0,0.0,0.075,2005.327,13464.578,0.0,1.306,-0.0,0.8,0.0,0.0,0.8,0.0,0.0,0.0,0.0,0.25,0.031,8.108,0.0,-0.04,0.395,0.0,0.0,0.0,0.0,0.0,0.0,0.414,0.0,0.0,0.419,0.0,0.0,0.0,0.066,0.0,0.0,83.862,76.224,0.252,3558.677
6.084,177.317,1944.809,0.0,80.826,-22.56,0.0,0.0,0.0,-0.123,0.992,0.0,0.0,0.092,2157.064,14031.384,0.0,1.438,-0.0,0.8,0.0,0.0,0.8,0.0,0.0,0.0,0.0,0.26,0.031,8.354,0.0,-0.039,0.412,0.0,0.0,0.0,0.0,0.0,0.0,0.414,0.0,0.0,0.415,0.0,0.0,0.0,0.083,0.0,0.0,83.897,76.258,0.252,3561.853
6.101,178.666,1944.431,0.0,80.837,-22.653,0.0,0.0,0.0,-0.122,0.992,0.0,0.0,0.109,2329.14,14682.846,0.0,1.599,-0.0,0.8,0.0,0.0,0.8,0.0,0.0,0.0,0.0,0.272,0.032,8.627,0.0,-0.038,0.431,0.0,0.0,0.0,0.0,0.0,0.0,0.414,0.0,0.0,0.411,0.0,0.0,0.0,0.1,0.0,0.0,83.933,76.292,0.252,3565.025
6.118,180.008,1944.054,0.0,80.849,-22.743,0.0,0.0,0.0,-0.121,0.993,0.0,0.0,0.125,2509.319,15369.056,0.0,1.765,-0.0,0.8,0.0,0.0,0.8,0.0,0.0,0.0,0.0,0.285,0.032,8.9,0.0,-0.037,0.452,0.0,0.0,0.0,0.0,0.0,0.0,0.414,0.0,0.0,0.406,0.0,0.0,0.0,0.117,0.0,0.0,83.969,76.326,0.252,3568.205
6.134,181.375,1943.669,0.0,80.862,-22.831,0.0,0.0,0.0,-0.12,0.993,0.0,0.0,0.142,2710.711,16145.214,0.0,1.948,-0.0,0.8,0.0,0.0,0.8,0.0,0.0,0.0,0.0,0.3,0.033,9.191,0.0,-0.036,0.476,0.0,0.0,0.0,0.0,0.0,0.0,0.414,0.0,0.0,0.402,0.0,0.0,0.0,0.134,0.0,0.0,84.005,76.36,0.252,3571.409
6.151,182.709,1943.292,0.0,80.876,-22.913,0.0,0.0,0.0,-0.119,0.993,0.0,0.0,0.158,2917.095,16945.631,0.0,2.143,-0.0,0.8,0.0,0.0,0.8,0.0,0.0,0.0,0.0,0.315,0.033,9.473,0.0,-0.035,0.5,0.0,0.0,0.0,0.0,0.0,0.0,0.414,0.0,0.0,0.397,0.0,0.0,0.0,0.15,0.0,0.0,84.041,76.394,0.253,3574.607
6.167,184.044,1942.913,0.0,80.89,-22.991,0.0,0.0,0.0,-0.118,0.993,0.0,0.0,0.174,3132.618,17789.415,0.0,2.343,-0.0,0.8,0.0,0.0,0.8,0.0,0.0,0.0,0.0,0.33,0.034,9.75,0.0,-0.033,0.525,0.0,0.0,0.0,0.0,0.0,0.0,0.414,0.0,0.0,0.392,0.0,0.0,0.0,0.166,0.0,0.0,84.077,76.428,0.253,3577.767
6.184,185.403,1942.526,0.0,80.907,-23.066,0.0,0.0,0.0,-0.116,0.993,0.0,0.0,0.19,3366.911,18717.481,0.0,2.567,-0.0,0.8,0.0,0.0,0.8,0.0,0.0,0.0,0.0,0.348,0.035,10.031,0.0,-0.031,0.553,0.0,0.0,0.0,0.0,0.0,0.0,0.414,0.0,0.0,0.387,0.0,0.0,0.0,0.182,0.0,0.0,84.112,76.462,0.253,3580.954
6.201,186.754,1942.141,0.0,80.924,-23.136,0.0,0.0,0.0,-0.115,0.993,0.0,0.0,0.206,3607.394,19678.916,0.0,2.796,-0.0,0.8,0.0,0.0,0.8,0.0,0.0,0.0,0.0,0.366,0.036,10.297,0.0,-0.029,0.582,0.0,0.0,0.0,0.0,0.0,0.0,0.414,0.0,0.0,0.382,0.0,0.0,0.0,0.198,0.0,0.0,84.148,76.496,0.253,3584.153
6.218,188.098,1941.756,0.0,80.942,-23.2,0.0,0.0,0.0,-0.113,0.994,0.0,0.0,0.222,3853.278,20672.561,0.0,3.037,-0.0,0.8,0.0,0.0,0.8,0.0,0.0,0.0,0.0,0.384,0.036,10.546,0.0,-0.027,0.612,0.0,0.0,0.0,0.0,0.0,0.0,0.414,0.0,0.0,0.377,0.0,0.0,0.0,0.214,0.0,0.0,84.184,76.53,0.253,3587.321
6.234,189.45,1941.368,0.0,80.962,-23.26,0.0,0.0,0.0,-0.111,0.994,0.0,0.0,0.237,4116.218,21750.615,0.0,3.295,-0.0,0.8,0.0,0.0,0.8,0.0,0.0,0.0,0.0,0.404,0.037,10.787,0.0,-0.024,0.644,0.0,0.0,0.0,0.0,0.0,0.0,0.414,0.0,0.0,0.372,0.0,0.0,0.0,0.229,0.0,0.0,84.219,76.564,0.253,3590.48
6.251,190.794,1940.981,0.0,80.983,-23.315,0.0,0.0,0.0,-0.109,0.994,0.0,0.0,0.252,4382.616,22856.726,0.0,3.558,-0.0,0.8,0.0,0.0,0.8,0.0,0.0,0.0,0.0,0.424,0.039,11.006,0.0,-0.021,0.678,0.0,0.0,0.0,0.0,0.0,0.0,0.414,0.0,0.0,0.367,0.0,0.0,0.0,0.245,0.0,0.0,84.254,76.597,0.253,3593.62
6.268,192.146,1940.592,0.0,81.005,-23.364,0.0,0.0,0.0,-0.107,0.994,0.0,0.0,0.267,4655.481,24006.334,0.0,3.833,-0.0,0.8,0.0,0.0,0.8,0.0,0.0,0.0,0.0,0.446,0.04,11.203,0.0,-0.017,0.712,0.0,0.0,0.0,0.0,0.0,0.0,0.414,0.0,0.0,0.361,0.0,0.0,0.0,0.26,0.0,0.0,84.29,76.63,0.253,3596.748
6.284,193.491,1940.203,0.0,81.028,-23.407,0.0,0.0,0.0,-0.104,0.994,0.0,0.0,0.282,4939.594,25223.591,0.0,4.125,-0.0,0.8,0.0,0.0,0.8,0.0,0.0,0.0,0.0,0.468,0.041,11.381,0.0,-0.014,0.749,0.0,0.0,0.0,0.0,0.0,0.0,0.414,0.0,0.0,0.356,0.0,0.0,0.0,0.275,0.0,0.0,84.324,76.664,0.253,3599.851
6.301,194.845,1939.812,0.0,81.053,-23.445,0.0,0.0,0.0,-0.102,0.995,0.0,0.0,0.296,5227.686,26479.321,0.0,4.423,-0.0,0.8,0.0,0.0,0.8,0.0,0.0,0.0,0.0,0.491,0.043,11.534,0.0,-0.009,0.786,0.0,0.0,0.0,0.0,0.0,0.0,0.414,0.0,0.0,0.35,0.0,0.0,0.0,0.289,0.0,0.0,84.359,76.696,0.254,3602.93
6.318,196.198,1939.42,0.0,81.079,-23.476,0.0,0.0,0.0,-0.1,0.995,0.0,0.0,0.311,5518.078,27768.77,0.0,4.733,-0.0,0.8,0.0,0.0,0.8,0.0,0.0,0.0,0.0,0.515,0.044,11.66,0.0,-0.005,0.825,0.0,0.0,0.0,0.0,0.0,0.0,0.414,0.0,0.0,0.344,0.0,0.0,0.0,0.304,0.0,0.0,84.393,76.729,0.254,3605.987
6.334,197.545,1939.03,0.0,81.107,-23.501,0.0,0.0,0.0,-0.097,0.995,0.0,0.0,0.325,5807.781,29080.932,0.0,5.042,-0.0,0.8,0.0,0.0,0.8,0.0,0.0,0.0,0.0,0.539,0.046,11.761,0.0,0.0,0.864,0.0,0.0,0.0,0.0,0.0,0.0,0.414,0.0,0.0,0.339,0.0,0.0,0.0,0.318,0.0,0.0,84.426,76.761,0.254,3609.006
6.351,198.907,1938.636,0.0,81.136,-23.52,0.0,0.0,0.0,-0.094,0.996,0.0,0.0,0.339,6101.48,30440.582,0.0,5.363,-0.0,0.8,0.0,0.0,0.8,0.0,0.0,0.0,0.0,0.564,0.048,11.838,0.0,0.006,0.904,0.0,0.0,0.0,0.0,0.0,0.0,0.414,0.0,0.0,0.333,0.0,0.0,0.0,0.332,0.0,0.0,84.46,76.793,0.254,3611.997
6.368,200.263,1938.243,0.0,81.167,-23.531,0.0,0.0,0.0,-0.091,0.996,0.0,0.0,0.353,6402.116,31866.163,0.0,5.701,-0.0,0.8,0.0,0.0,0.8,0.0,0.0,0.0,0.0,0.589,0.05,11.891,0.0,0.012,0.947,0.0,0.0,0.0,0.0,0.0,0.0,0.414,0.0,0.0,0.327,0.0,0.0,0.0,0.346,0.0,0.0,84.493,76.824,0.254,3614.96
6.384,201.61,1937.852,0.0,81.198,-23.536,0.0,0.0,0.0,-0.088,0.996,0.0,0.0,0.366,6700.274,33316.831,0.0,6.039,-0.0,0.8,0.0,0.0,0.8,0.0,0.0,0.0,0.0,0.616,0.052,11.92,0.0,0.019,0.99,0.0,0.0,0.0,0.0,0.0,0.0,0.414,0.0,0.0,0.321,0.0,0.0,0.0,0.359,0.0,0.0,84.525,76.855,0.254,3617.856
6.401,202.958,1937.461,0.0,81.232,-23.534,0.0,0.0,0.0,-0.085,0.996,0.0,0.0,0.379,6997.981,34805.989,0.0,6.388,-0.0,0.8,0.0,0.0,0.8,0.0,0.0,0.0,0.0,0.643,0.054,11.926,0.0,0.026,1.034,0.0,0.0,0.0,0.0,0.0,0.0,0.414,0.0,0.0,0.315,0.0,0.0,0.0,0.373,0.0,0.0,84.556,76.885,0.254,3620.702
6.418,204.315,1937.068,0.0,81.266,-23.524,0.0,0.0,0.0,-0.082,0.997,0.0,0.0,0.392,7293.448,36329.166,0.0,6.749,-0.0,0.8,0.0,0.0,0.8,0.0,0.0,0.0,0.0,0.67,0.056,11.912,0.0,0.033,1.079,0.0,0.0,0.0,0.0,0.0,0.0,0.414,0.0,0.0,0.309,0.0,0.0,0.0,0.386,0.0,0.0,84.587,76.915,0.254,3623.501
6.434,205.673,1936.676,0.0,81.303,-23.507,0.0,0.0,0.0,-0.079,0.997,0.0,0.0,0.405,7583.436,37873.842,0.0,7.11,-0.0,0.8,0.0,0.0,0.8,0.0,0.0,0.0,0.0,0.698,0.059,11.877,0.0,0.042,1.125,0.0,0.0,0.0,0.0,0.0,0.0,0.414,0.0,0.0,0.303,0.0,0.0,0.0,0.399,0.0,0.0,84.618,76.944,0.254,3626.249
6.451,207.023,1936.286,0.0,81.34,-23.483,0.0,0.0,0.0,-0.075,0.997,0.0,0.0,0.417,7868.647,39446.906,0.0,7.477,-0.0,0.8,0.0,0.0,0.8,0.0,0.0,0.0,0.0,0.727,0.062,11.825,0.0,0.05,1.171,0.0,0.0,0.0,0.0,0.0,0.0,0.414,0.0,0.0,0.297,0.0,0.0,0.0,0.411,0.0,0.0,84.647,76.973,0.254,3628.93
6.468,208.381,1935.894,0.0,81.379,-23.451,0.0,0.0,0.0,-0.072,0.997,0.0,0.0,0.43,8150.042,41058.612,0.0,7.855,-0.0,0.8,0.0,0.0,0.8,0.0,0.0,0.0,0.0,0.756,0.064,11.756,0.0,0.06,1.218,0.0,0.0,0.0,0.0,0.0,0.0,0.414,0.0,0.0,0.291,0.0,0.0,0.0,0.423,0.0,0.0,84.676,77.0,0.254,3631.54
6.484,209.733,1935.505,0.0,81.419,-23.411,0.0,0.0,0.0,-0.068,0.998,0.0,0.0,0.441,8422.527,42685.627,0.0,8.233,-0.0,0.8,0.0,0.0,0.8,0.0,0.0,0.0,0.0,0.785,0.067,11.672,0.0,0.07,1.266,0.0,0.0,0.0,0.0,0.0,0.0,0.414,0.0,0.0,0.285,0.0,0.0,0.0,0.436,0.0,0.0,84.704,77.027,0.254,3634.081
