time,LATITUDE_m,ALTITUDE_m,LONGITUDE_m,vx,VSI_ms,vz,qx,qy,qz,qw,wx,wy,wz,fx_global,fy_global,fz_global,alpha_DEG,beta_DEG,pitch_demand,roll_demand,yaw_demand,pitch_demand_attained,roll_demand_attained,yaw_demand_attained,thrust_setting_demand,thrust_attained,CL,CD,CL_CD_ratio,CS,nx,nz,ny,CM_roll_from_aero_forces,CM_yaw_from_aero_forces,CM_pitch_from_aero_forces,CM_roll_from_control,CM_yaw_from_control,CM_pitch_from_control,CM_roll_from_aero_stiffness,CM_yaw_from_aero_stiffness,CM_pitch_from_aero_stiffness,CM_roll_from_aero_damping,CM_yaw_from_aero_damping,CM_pitch_from_aero_damping,q_pitch_rate,p_roll_rate,r_yaw_rate,TAS,EAS,Mach,dynamic_pressure
3.013,-119.599,2007.159,0.0,56.081,6.998,0.0,0.0,0.0,0.055,0.998,0.0,0.0,0.065,-1772.698,8515.368,0.0,-0.814,-0.0,0.0,0.0,0.0,-0.053,0.0,0.0,0.0,0.0,0.346,0.028,12.219,0.0,-0.131,1.358,0.0,0.0,0.0,0.0,0.0,0.0,-0.033,0.0,0.0,-0.001,0.0,0.0,0.0,0.065,0.0,0.0,56.536,51.228,0.17,1607.368
3.03,-118.686,2007.273,0.0,56.036,7.051,0.0,0.0,0.0,0.056,0.998,0.0,0.0,0.064,-1781.469,8516.196,0.0,-0.808,-0.0,0.0,0.0,0.0,-0.053,0.0,0.0,0.0,0.0,0.346,0.028,12.234,0.0,-0.13,1.359,0.0,0.0,0.0,0.0,0.0,0.0,-0.033,0.0,0.0,-0.001,0.0,0.0,0.0,0.064,0.0,0.0,56.497,51.192,0.17,1605.163
3.046,-117.75,2007.392,0.0,55.991,7.106,0.0,0.0,0.0,0.056,0.998,0.0,0.0,0.064,-1787.146,8497.173,0.0,-0.808,-0.0,0.0,0.0,0.0,-0.053,0.0,0.0,0.0,0.0,0.346,0.028,12.228,0.0,-0.13,1.356,0.0,0.0,0.0,0.0,0.0,0.0,-0.033,0.0,0.0,-0.001,0.0,0.0,0.0,0.064,0.0,0.0,56.459,51.158,0.17,1602.974
3.063,-116.827,2007.509,0.0,55.945,7.159,0.0,0.0,0.0,0.056,0.998,0.0,0.0,0.064,-1792.614,8477.126,0.0,-0.814,-0.0,0.0,0.0,0.0,-0.053,0.0,0.0,0.0,0.0,0.346,0.028,12.222,0.0,-0.13,1.353,0.0,0.0,0.0,0.0,0.0,0.0,-0.033,0.0,0.0,-0.001,0.0,0.0,0.0,0.064,0.0,0.0,56.42,51.122,0.17,1600.767
3.08,-115.882,2007.631,0.0,55.898,7.213,0.0,0.0,0.0,0.057,0.998,0.0,0.0,0.064,-1798.185,8458.043,0.0,-0.814,-0.0,0.0,0.0,0.0,-0.053,0.0,0.0,0.0,0.0,0.346,0.028,12.216,0.0,-0.13,1.35,0.0,0.0,0.0,0.0,0.0,0.0,-0.033,0.0,0.0,-0.001,0.0,0.0,0.0,0.064,0.0,0.0,56.382,51.087,0.17,1598.54
3.096,-114.96,2007.75,0.0,55.852,7.266,0.0,0.0,0.0,0.058,0.998,0.0,0.0,0.064,-1803.266,8436.432,0.0,-0.814,-0.0,0.0,0.0,0.0,-0.053,0.0,0.0,0.0,0.0,0.345,0.028,12.208,0.0,-0.13,1.347,0.0,0.0,0.0,0.0,0.0,0.0,-0.033,0.0,0.0,-0.001,0.0,0.0,0.0,0.064,0.0,0.0,56.342,51.051,0.17,1596.303
3.113,-114.027,2007.872,0.0,55.806,7.318,0.0,0.0,0.0,0.058,0.998,0.0,0.0,0.064,-1809.131,8420.963,0.0,-0.819,-0.0,0.0,0.0,0.0,-0.053,0.0,0.0,0.0,0.0,0.345,0.028,12.206,0.0,-0.13,1.345,0.0,0.0,0.0,0.0,0.0,0.0,-0.033,0.0,0.0,-0.001,0.0,0.0,0.0,0.064,0.0,0.0,56.304,51.015,0.169,1594.075
3.129,-113.107,2007.993,0.0,55.76,7.37,0.0,0.0,0.0,0.058,0.998,0.0,0.0,0.064,-1814.51,8402.834,0.0,-0.819,-0.0,0.0,0.0,0.0,-0.053,0.0,0.0,0.0,0.0,0.345,0.028,12.201,0.0,-0.129,1.342,0.0,0.0,0.0,0.0,0.0,0.0,-0.033,0.0,0.0,-0.001,0.0,0.0,0.0,0.064,0.0,0.0,56.264,50.98,0.169,1591.84
3.146,-112.165,2008.118,0.0,55.713,7.422,0.0,0.0,0.0,0.059,0.998,0.0,0.0,0.064,-1820.233,8387.162,0.0,-0.819,-0.0,0.0,0.0,0.0,-0.053,0.0,0.0,0.0,0.0,0.345,0.028,12.199,0.0,-0.129,1.34,0.0,0.0,0.0,0.0,0.0,0.0,-0.033,0.0,0.0,-0.001,0.0,0.0,0.0,0.064,0.0,0.0,56.225,50.944,0.169,1589.585
3.163,-111.241,2008.242,0.0,55.666,7.473,0.0,0.0,0.0,0.06,0.998,0.0,0.0,0.064,-1825.49,8368.933,0.0,-0.819,-0.0,0.0,0.0,0.0,-0.053,0.0,0.0,0.0,0.0,0.345,0.028,12.195,0.0,-0.129,1.338,0.0,0.0,0.0,0.0,0.0,0.0,-0.033,0.0,0.0,-0.001,0.0,0.0,0.0,0.064,0.0,0.0,56.185,50.907,0.169,1587.32
3.18,-110.317,2008.366,0.0,55.619,7.524,0.0,0.0,0.0,0.06,0.998,0.0,0.0,0.064,-1831.371,8355.646,0.0,-0.819,-0.0,0.0,0.0,0.0,-0.053,0.0,0.0,0.0,0.0,0.345,0.028,12.195,0.0,-0.129,1.336,0.0,0.0,0.0,0.0,0.0,0.0,-0.033,0.0,0.0,-0.001,0.0,0.0,0.0,0.064,0.0,0.0,56.146,50.871,0.169,1585.068
3.196,-109.394,2008.492,0.0,55.572,7.574,0.0,0.0,0.0,0.06,0.998,0.0,0.0,0.064,-1837.012,8341.218,0.0,-0.819,-0.0,0.0,0.0,0.0,-0.053,0.0,0.0,0.0,0.0,0.345,0.028,12.194,0.0,-0.129,1.334,0.0,0.0,0.0,0.0,0.0,0.0,-0.033,0.0,0.0,-0.001,0.0,0.0,0.0,0.064,0.0,0.0,56.106,50.835,0.169,1582.808
3.213,-108.455,2008.62,0.0,55.524,7.624,0.0,0.0,0.0,0.061,0.998,0.0,0.0,0.063,-1842.752,8327.418,0.0,-0.819,-0.0,0.0,0.0,0.0,-0.053,0.0,0.0,0.0,0.0,0.345,0.028,12.195,0.0,-0.128,1.332,0.0,0.0,0.0,0.0,0.0,0.0,-0.033,0.0,0.0,-0.001,0.0,0.0,0.0,0.064,0.0,0.0,56.066,50.798,0.169,1580.524
3.23,-107.54,2008.746,0.0,55.478,7.674,0.0,0.0,0.0,0.062,0.998,0.0,0.0,0.063,-1848.338,8313.176,0.0,-0.819,-0.0,0.0,0.0,0.0,-0.053,0.0,0.0,0.0,0.0,0.345,0.028,12.194,0.0,-0.128,1.33,0.0,0.0,0.0,0.0,0.0,0.0,-0.033,0.0,0.0,-0.001,0.0,0.0,0.0,0.063,0.0,0.0,56.026,50.761,0.168,1578.24
3.246,-106.613,2008.875,0.0,55.43,7.723,0.0,0.0,0.0,0.062,0.998,0.0,0.0,0.063,-1854.199,8301.344,0.0,-0.819,-0.0,0.0,0.0,0.0,-0.053,0.0,0.0,0.0,0.0,0.345,0.028,12.196,0.0,-0.128,1.328,0.0,0.0,0.0,0.0,0.0,0.0,-0.033,0.0,0.0,-0.001,0.0,0.0,0.0,0.063,0.0,0.0,55.986,50.725,0.168,1575.964
3.263,-105.694,2009.003,0.0,55.382,7.772,0.0,0.0,0.0,0.062,0.998,0.0,0.0,0.063,-1859.826,8288.277,0.0,-0.819,-0.0,0.0,0.0,0.0,-0.053,0.0,0.0,0.0,0.0,0.345,0.028,12.197,0.0,-0.128,1.326,0.0,0.0,0.0,0.0,0.0,0.0,-0.033,0.0,0.0,-0.001,0.0,0.0,0.0,0.063,0.0,0.0,55.945,50.688,0.168,1573.676
3.28,-104.769,2009.134,0.0,55.334,7.821,0.0,0.0,0.0,0.063,0.998,0.0,0.0,0.063,-1865.869,8278.04,0.0,-0.819,-0.0,0.0,0.0,0.0,-0.053,0.0,0.0,0.0,0.0,0.345,0.028,12.201,0.0,-0.128,1.325,0.0,0.0,0.0,0.0,0.0,0.0,-0.033,0.0,0.0,-0.001,0.0,0.0,0.0,0.063,0.0,0.0,55.905,50.651,0.168,1571.38
3.296,-103.851,2009.264,0.0,55.287,7.869,0.0,0.0,0.0,0.064,0.998,0.0,0.0,0.063,-1871.528,8265.808,0.0,-0.819,-0.0,0.0,0.0,0.0,-0.053,0.0,0.0,0.0,0.0,0.345,0.028,12.203,0.0,-0.128,1.323,0.0,0.0,0.0,0.0,0.0,0.0,-0.033,0.0,0.0,-0.001,0.0,0.0,0.0,0.063,0.0,0.0,55.864,50.614,0.168,1569.081
3.313,-102.928,2009.396,0.0,55.238,7.918,0.0,0.0,0.0,0.064,0.998,0.0,0.0,0.063,-1877.338,8254.794,0.0,-0.814,-0.0,0.0,0.0,0.0,-0.053,0.0,0.0,0.0,0.0,0.345,0.028,12.206,0.0,-0.127,1.322,0.0,0.0,0.0,0.0,0.0,0.0,-0.033,0.0,0.0,-0.001,0.0,0.0,0.0,0.063,0.0,0.0,55.824,50.577,0.168,1566.773
3.33,-102.006,2009.528,0.0,55.19,7.966,0.0,0.0,0.0,0.064,0.998,0.0,0.0,0.063,-1883.328,8245.008,0.0,-0.814,-0.0,0.0,0.0,0.0,-0.053,0.0,0.0,0.0,0.0,0.345,0.028,12.21,0.0,-0.127,1.321,0.0,0.0,0.0,0.0,0.0,0.0,-0.033,0.0,0.0,-0.001,0.0,0.0,0.0,0.063,0.0,0.0,55.782,50.539,0.168,1564.454
3.346,-101.09,2009.661,0.0,55.142,8.013,0.0,0.0,0.0,0.065,0.998,0.0,0.0,0.063,-1889.013,8233.752,0.0,-0.814,-0.0,0.0,0.0,0.0,-0.053,0.0,0.0,0.0,0.0,0.346,0.028,12.214,0.0,-0.127,1.319,0.0,0.0,0.0,0.0,0.0,0.0,-0.033,0.0,0.0,-0.001,0.0,0.0,0.0,0.063,0.0,0.0,55.742,50.502,0.168,1562.134
3.363,-100.17,2009.795,0.0,55.093,8.061,0.0,0.0,0.0,0.066,0.998,0.0,0.0,0.062,-1894.862,8223.769,0.0,-0.808,-0.0,0.0,0.0,0.0,-0.053,0.0,0.0,0.0,0.0,0.346,0.028,12.218,0.0,-0.127,1.318,0.0,0.0,0.0,0.0,0.0,0.0,-0.033,0.0,0.0,-0.001,0.0,0.0,0.0,0.063,0.0,0.0,55.7,50.464,0.168,1559.811
3.38,-99.25,2009.93,0.0,55.044,8.108,0.0,0.0,0.0,0.066,0.998,0.0,0.0,0.062,-1900.604,8213.305,0.0,-0.808,-0.0,0.0,0.0,0.0,-0.053,0.0,0.0,0.0,0.0,0.346,0.028,12.222,0.0,-0.126,1.316,0.0,0.0,0.0,0.0,0.0,0.0,-0.033,0.0,0.0,-0.001,0.0,0.0,0.0,0.062,0.0,0.0,55.659,50.426,0.167,1557.472
3.396,-98.331,2010.066,0.0,54.995,8.155,0.0,0.0,0.0,0.066,0.998,0.0,0.0,0.062,-1906.663,8204.953,0.0,-0.808,-0.0,0.0,0.0,0.0,-0.053,0.0,0.0,0.0,0.0,0.346,0.028,12.228,0.0,-0.126,1.315,0.0,0.0,0.0,0.0,0.0,0.0,-0.033,0.0,0.0,-0.001,0.0,0.0,0.0,0.062,0.0,0.0,55.618,50.388,0.167,1555.13
3.413,-97.419,2010.202,0.0,54.947,8.201,0.0,0.0,0.0,0.067,0.998,0.0,0.0,0.062,-1912.404,8195.082,0.0,-0.802,-0.0,0.0,0.0,0.0,-0.053,0.0,0.0,0.0,0.0,0.346,0.028,12.232,0.0,-0.126,1.314,0.0,0.0,0.0,0.0,0.0,0.0,-0.033,0.0,0.0,-0.001,0.0,0.0,0.0,0.062,0.0,0.0,55.576,50.35,0.167,1552.786
3.43,-96.502,2010.339,0.0,54.897,8.248,0.0,0.0,0.0,0.068,0.998,0.0,0.0,0.062,-1918.292,8186.25,0.0,-0.802,-0.0,0.0,0.0,0.0,-0.053,0.0,0.0,0.0,0.0,0.346,0.028,12.238,0.0,-0.126,1.313,0.0,0.0,0.0,0.0,0.0,0.0,-0.033,0.0,0.0,-0.001,0.0,0.0,0.0,0.062,0.0,0.0,55.534,50.312,0.167,1550.44
3.446,-95.591,2010.476,0.0,54.848,8.294,0.0,0.0,0.0,0.068,0.998,0.0,0.0,0.062,-1924.33,8178.428,0.0,-0.796,-0.0,0.0,0.0,0.0,-0.053,0.0,0.0,0.0,0.0,0.347,0.028,12.245,0.0,-0.126,1.312,0.0,0.0,0.0,0.0,0.0,0.0,-0.033,0.0,0.0,-0.001,0.0,0.0,0.0,0.062,0.0,0.0,55.493,50.274,0.167,1548.086
3.463,-94.675,2010.615,0.0,54.799,8.34,0.0,0.0,0.0,0.068,0.998,0.0,0.0,0.062,-1930.218,8169.94,0.0,-0.796,-0.0,0.0,0.0,0.0,-0.053,0.0,0.0,0.0,0.0,0.347,0.028,12.251,0.0,-0.125,1.311,0.0,0.0,0.0,0.0,0.0,0.0,-0.033,0.0,0.0,-0.001,0.0,0.0,0.0,0.062,0.0,0.0,55.451,50.236,0.167,1545.729
3.48,-93.76,2010.755,0.0,54.749,8.386,0.0,0.0,0.0,0.069,0.998,0.0,0.0,0.062,-1935.999,8160.959,0.0,-0.796,-0.0,0.0,0.0,0.0,-0.053,0.0,0.0,0.0,0.0,0.347,0.028,12.257,0.0,-0.125,1.31,0.0,0.0,0.0,0.0,0.0,0.0,-0.033,0.0,0.0,-0.001,0.0,0.0,0.0,0.062,0.0,0.0,55.408,50.197,0.167,1543.356
3.496,-92.846,2010.895,0.0,54.699,8.432,0.0,0.0,0.0,0.07,0.998,0.0,0.0,0.062,-1942.095,8153.913,0.0,-0.791,-0.0,0.0,0.0,0.0,-0.053,0.0,0.0,0.0,0.0,0.348,0.028,12.265,0.0,-0.125,1.309,0.0,0.0,0.0,0.0,0.0,0.0,-0.033,0.0,0.0,-0.001,0.0,0.0,0.0,0.062,0.0,0.0,55.366,50.159,0.166,1540.981
3.513,-91.939,2011.036,0.0,54.649,8.477,0.0,0.0,0.0,0.07,0.998,0.0,0.0,0.062,-1947.856,8145.278,0.0,-0.791,-0.0,0.0,0.0,0.0,-0.053,0.0,0.0,0.0,0.0,0.348,0.028,12.271,0.0,-0.125,1.308,0.0,0.0,0.0,0.0,0.0,0.0,-0.033,0.0,0.0,-0.001,0.0,0.0,0.0,0.062,0.0,0.0,55.324,50.12,0.166,1538.604
3.529,-91.032,2011.177,0.0,54.599,8.522,0.0,0.0,0.0,0.07,0.998,0.0,0.0,0.062,-1954.07,8139.446,0.0,-0.785,-0.0,0.0,0.0,0.0,-0.053,0.0,0.0,0.0,0.0,0.348,0.028,12.28,0.0,-0.124,1.307,0.0,0.0,0.0,0.0,0.0,0.0,-0.033,0.0,0.0,-0.001,0.0,0.0,0.0,0.062,0.0,0.0,55.282,50.081,0.166,1536.232
3.546,-90.11,2011.321,0.0,54.548,8.568,0.0,0.0,0.0,0.071,0.998,0.0,0.0,0.061,-1959.994,8131.722,0.0,-0.779,-0.0,0.0,0.0,0.0,-0.053,0.0,0.0,0.0,0.0,0.348,0.028,12.288,0.0,-0.124,1.306,0.0,0.0,0.0,0.0,0.0,0.0,-0.033,0.0,0.0,-0.001,0.0,0.0,0.0,0.061,0.0,0.0,55.239,50.042,0.166,1533.831
3.563,-89.199,2011.464,0.0,54.498,8.613,0.0,0.0,0.0,0.072,0.997,0.0,0.0,0.061,-1965.513,8121.828,0.0,-0.779,-0.0,0.0,0.0,0.0,-0.053,0.0,0.0,0.0,0.0,0.349,0.028,12.293,0.0,-0.124,1.305,0.0,0.0,0.0,0.0,0.0,0.0,-0.033,0.0,0.0,-0.001,0.0,0.0,0.0,0.061,0.0,0.0,55.196,50.003,0.166,1531.415
3.58,-88.3,2011.607,0.0,54.448,8.657,0.0,0.0,0.0,0.072,0.997,0.0,0.0,0.061,-1971.586,8115.636,0.0,-0.773,-0.0,0.0,0.0,0.0,-0.053,0.0,0.0,0.0,0.0,0.349,0.028,12.302,0.0,-0.124,1.304,0.0,0.0,0.0,0.0,0.0,0.0,-0.033,0.0,0.0,-0.001,0.0,0.0,0.0,0.061,0.0,0.0,55.153,49.964,0.166,1529.024
3.596,-87.392,2011.752,0.0,54.397,8.702,0.0,0.0,0.0,0.072,0.997,0.0,0.0,0.061,-1977.612,8109.293,0.0,-0.773,-0.0,0.0,0.0,0.0,-0.053,0.0,0.0,0.0,0.0,0.349,0.028,12.31,0.0,-0.124,1.304,0.0,0.0,0.0,0.0,0.0,0.0,-0.033,0.0,0.0,-0.001,0.0,0.0,0.0,0.061,0.0,0.0,55.11,49.924,0.166,1526.631
3.613,-86.489,2011.897,0.0,54.346,8.746,0.0,0.0,0.0,0.073,0.997,0.0,0.0,0.061,-1983.352,8101.39,0.0,-0.768,-0.0,0.0,0.0,0.0,-0.053,0.0,0.0,0.0,0.0,0.35,0.028,12.318,0.0,-0.123,1.303,0.0,0.0,0.0,0.0,0.0,0.0,-0.033,0.0,0.0,-0.001,0.0,0.0,0.0,0.061,0.0,0.0,55.067,49.885,0.166,1524.223
3.63,-85.582,2012.043,0.0,54.295,8.79,0.0,0.0,0.0,0.074,0.997,0.0,0.0,0.061,-1989.579,8096.253,0.0,-0.762,-0.0,0.0,0.0,0.0,-0.053,0.0,0.0,0.0,0.0,0.35,0.028,12.328,0.0,-0.123,1.302,0.0,0.0,0.0,0.0,0.0,0.0,-0.033,0.0,0.0,-0.001,0.0,0.0,0.0,0.061,0.0,0.0,55.024,49.846,0.166,1521.806
3.646,-84.681,2012.189,0.0,54.244,8.834,0.0,0.0,0.0,0.074,0.997,0.0,0.0,0.061,-1995.29,8088.473,0.0,-0.762,-0.0,0.0,0.0,0.0,-0.053,0.0,0.0,0.0,0.0,0.35,0.028,12.335,0.0,-0.123,1.301,0.0,0.0,0.0,0.0,0.0,0.0,-0.033,0.0,0.0,-0.001,0.0,0.0,0.0,0.061,0.0,0.0,54.981,49.806,0.165,1519.388
3.663,-83.775,2012.337,0.0,54.193,8.878,0.0,0.0,0.0,0.074,0.997,0.0,0.0,0.06,-2001.119,8081.414,0.0,-0.756,-0.0,0.0,0.0,0.0,-0.053,0.0,0.0,0.0,0.0,0.351,0.028,12.344,0.0,-0.123,1.3,0.0,0.0,0.0,0.0,0.0,0.0,-0.033,0.0,0.0,-0.001,0.0,0.0,0.0,0.06,0.0,0.0,54.937,49.766,0.165,1516.961
3.68,-82.871,2012.486,0.0,54.141,8.921,0.0,0.0,0.0,0.075,0.997,0.0,0.0,0.06,-2007.174,8075.534,0.0,-0.756,-0.0,0.0,0.0,0.0,-0.053,0.0,0.0,0.0,0.0,0.351,0.028,12.353,0.0,-0.122,1.3,0.0,0.0,0.0,0.0,0.0,0.0,-0.033,0.0,0.0,-0.001,0.0,0.0,0.0,0.06,0.0,0.0,54.893,49.726,0.165,1514.525
3.696,-81.972,2012.634,0.0,54.09,8.964,0.0,0.0,0.0,0.076,0.997,0.0,0.0,0.06,-2012.857,8067.951,0.0,-0.751,-0.0,0.0,0.0,0.0,-0.053,0.0,0.0,0.0,0.0,0.351,0.028,12.361,0.0,-0.122,1.299,0.0,0.0,0.0,0.0,0.0,0.0,-0.033,0.0,0.0,-0.001,0.0,0.0,0.0,0.06,0.0,0.0,54.85,49.686,0.165,1512.089
3.713,-81.075,2012.784,0.0,54.038,9.008,0.0,0.0,0.0,0.076,0.997,0.0,0.0,0.06,-2019.013,8063.028,0.0,-0.745,-0.0,0.0,0.0,0.0,-0.053,0.0,0.0,0.0,0.0,0.352,0.028,12.372,0.0,-0.122,1.298,0.0,0.0,0.0,0.0,0.0,0.0,-0.033,0.0,0.0,-0.001,0.0,0.0,0.0,0.06,0.0,0.0,54.806,49.646,0.165,1509.657
3.73,-80.162,2012.936,0.0,53.986,9.051,0.0,0.0,0.0,0.076,0.997,0.0,0.0,0.06,-2024.861,8056.294,0.0,-0.745,-0.0,0.0,0.0,0.0,-0.053,0.0,0.0,0.0,0.0,0.352,0.028,12.381,0.0,-0.122,1.298,0.0,0.0,0.0,0.0,0.0,0.0,-0.033,0.0,0.0,-0.001,0.0,0.0,0.0,0.06,0.0,0.0,54.762,49.606,0.165,1507.194
3.746,-79.261,2013.088,0.0,53.934,9.094,0.0,0.0,0.0,0.077,0.997,0.0,0.0,0.059,-2030.303,8047.482,0.0,-0.739,-0.0,0.0,0.0,0.0,-0.053,0.0,0.0,0.0,0.0,0.352,0.028,12.388,0.0,-0.122,1.296,0.0,0.0,0.0,0.0,0.0,0.0,-0.033,0.0,0.0,-0.001,0.0,0.0,0.0,0.06,0.0,0.0,54.717,49.565,0.165,1504.724
3.763,-78.366,2013.239,0.0,53.882,9.137,0.0,0.0,0.0,0.078,0.997,0.0,0.0,0.059,-2036.335,8042.145,0.0,-0.733,-0.0,0.0,0.0,0.0,-0.053,0.0,0.0,0.0,0.0,0.353,0.028,12.398,0.0,-0.121,1.296,0.0,0.0,0.0,0.0,0.0,0.0,-0.033,0.0,0.0,-0.001,0.0,0.0,0.0,0.059,0.0,0.0,54.673,49.524,0.164,1502.267
3.78,-77.472,2013.391,0.0,53.829,9.179,0.0,0.0,0.0,0.078,0.997,0.0,0.0,0.059,-2042.117,8035.716,0.0,-0.733,-0.0,0.0,0.0,0.0,-0.053,0.0,0.0,0.0,0.0,0.353,0.028,12.407,0.0,-0.121,1.295,0.0,0.0,0.0,0.0,0.0,0.0,-0.033,0.0,0.0,-0.002,0.0,0.0,0.0,0.059,0.0,0.0,54.629,49.484,0.164,1499.814
3.796,-76.574,2013.545,0.0,53.777,9.222,0.0,0.0,0.0,0.078,0.997,0.0,0.0,0.059,-2047.911,8029.363,0.0,-0.728,-0.0,0.0,0.0,0.0,-0.053,0.0,0.0,0.0,0.0,0.354,0.028,12.417,0.0,-0.121,1.294,0.0,0.0,0.0,0.0,0.0,0.0,-0.033,0.0,0.0,-0.002,0.0,0.0,0.0,0.059,0.0,0.0,54.584,49.443,0.164,1497.346
3.813,-75.681,2013.698,0.0,53.724,9.264,0.0,0.0,0.0,0.079,0.997,0.0,0.0,0.059,-2053.939,8024.287,0.0,-0.722,-0.0,0.0,0.0,0.0,-0.053,0.0,0.0,0.0,0.0,0.354,0.028,12.428,0.0,-0.121,1.294,0.0,0.0,0.0,0.0,0.0,0.0,-0.033,0.0,0.0,-0.002,0.0,0.0,0.0,0.059,0.0,0.0,54.539,49.403,0.164,1494.876
3.83,-74.785,2013.853,0.0,53.671,9.306,0.0,0.0,0.0,0.08,0.997,0.0,0.0,0.058,-2059.712,8017.99,0.0,-0.716,-0.0,0.0,0.0,0.0,-0.053,0.0,0.0,0.0,0.0,0.354,0.028,12.438,0.0,-0.12,1.293,0.0,0.0,0.0,0.0,0.0,0.0,-0.033,0.0,0.0,-0.002,0.0,0.0,0.0,0.058,0.0,0.0,54.495,49.362,0.164,1492.398
3.846,-73.894,2014.008,0.0,53.618,9.348,0.0,0.0,0.0,0.08,0.997,0.0,0.0,0.058,-2065.726,8012.988,0.0,-0.716,-0.0,0.0,0.0,0.0,-0.053,0.0,0.0,0.0,0.0,0.355,0.028,12.449,0.0,-0.12,1.293,0.0,0.0,0.0,0.0,0.0,0.0,-0.033,0.0,0.0,-0.002,0.0,0.0,0.0,0.058,0.0,0.0,54.45,49.321,0.164,1489.919
3.863,-72.999,2014.164,0.0,53.565,9.39,0.0,0.0,0.0,0.08,0.997,0.0,0.0,0.058,-2071.476,8006.74,0.0,-0.71,-0.0,0.0,0.0,0.0,-0.053,0.0,0.0,0.0,0.0,0.355,0.028,12.458,0.0,-0.12,1.292,0.0,0.0,0.0,0.0,0.0,0.0,-0.033,0.0,0.0,-0.002,0.0,0.0,0.0,0.058,0.0,0.0,54.405,49.279,0.164,1487.431
3.879,-72.11,2014.321,0.0,53.512,9.431,0.0,0.0,0.0,0.081,0.997,0.0,0.0,0.058,-2077.081,7999.858,0.0,-0.705,-0.0,0.0,0.0,0.0,-0.053,0.0,0.0,0.0,0.0,0.356,0.028,12.468,0.0,-0.12,1.291,0.0,0.0,0.0,0.0,0.0,0.0,-0.033,0.0,0.0,-0.002,0.0,0.0,0.0,0.058,0.0,0.0,54.36,49.238,0.164,1484.941
3.896,-71.217,2014.478,0.0,53.459,9.473,0.0,0.0,0.0,0.082,0.997,0.0,0.0,0.058,-2083.217,7995.673,0.0,-0.699,-0.0,0.0,0.0,0.0,-0.053,0.0,0.0,0.0,0.0,0.356,0.028,12.48,0.0,-0.119,1.291,0.0,0.0,0.0,0.0,0.0,0.0,-0.033,0.0,0.0,-0.002,0.0,0.0,0.0,0.058,0.0,0.0,54.314,49.197,0.163,1482.449
3.913,-70.33,2014.636,0.0,53.406,9.514,0.0,0.0,0.0,0.082,0.997,0.0,0.0,0.057,-2088.77,7988.621,0.0,-0.699,-0.0,0.0,0.0,0.0,-0.053,0.0,0.0,0.0,0.0,0.356,0.028,12.489,0.0,-0.119,1.29,0.0,0.0,0.0,0.0,0.0,0.0,-0.033,0.0,0.0,-0.002,0.0,0.0,0.0,0.058,0.0,0.0,54.269,49.155,0.163,1479.95
3.929,-69.439,2014.795,0.0,53.352,9.556,0.0,0.0,0.0,0.082,0.997,0.0,0.0,0.057,-2094.891,7984.494,0.0,-0.693,-0.0,0.0,0.0,0.0,-0.053,0.0,0.0,0.0,0.0,0.357,0.029,12.501,0.0,-0.119,1.29,0.0,0.0,0.0,0.0,0.0,0.0,-0.033,0.0,0.0,-0.002,0.0,0.0,0.0,0.057,0.0,0.0,54.224,49.114,0.163,1477.448
3.946,-68.543,2014.956,0.0,53.297,9.597,0.0,0.0,0.0,0.083,0.997,0.0,0.0,0.057,-2100.448,7977.413,0.0,-0.688,-0.0,0.0,0.0,0.0,-0.053,0.0,0.0,0.0,0.0,0.357,0.029,12.51,0.0,-0.119,1.289,0.0,0.0,0.0,0.0,0.0,0.0,-0.033,0.0,0.0,-0.002,0.0,0.0,0.0,0.057,0.0,0.0,54.178,49.072,0.163,1474.925
3.963,-67.659,2015.116,0.0,53.244,9.638,0.0,0.0,0.0,0.084,0.996,0.0,0.0,0.057,-2105.86,7969.892,0.0,-0.682,-0.0,0.0,0.0,0.0,-0.053,0.0,0.0,0.0,0.0,0.358,0.029,12.519,0.0,-0.118,1.288,0.0,0.0,0.0,0.0,0.0,0.0,-0.033,0.0,0.0,-0.002,0.0,0.0,0.0,0.057,0.0,0.0,54.132,49.03,0.163,1472.402
3.98,-66.77,2015.277,0.0,53.189,9.679,0.0,0.0,0.0,0.084,0.996,0.0,0.0,0.057,-2111.962,7965.913,0.0,-0.682,-0.0,0.0,0.0,0.0,-0.053,0.0,0.0,0.0,0.0,0.358,0.029,12.532,0.0,-0.118,1.288,0.0,0.0,0.0,0.0,0.0,0.0,-0.033,0.0,0.0,-0.002,0.0,0.0,0.0,0.057,0.0,0.0,54.086,48.988,0.163,1469.882
3.996,-65.877,2015.44,0.0,53.135,9.72,0.0,0.0,0.0,0.084,0.996,0.0,0.0,0.056,-2117.487,7958.952,0.0,-0.676,-0.0,0.0,0.0,0.0,-0.053,0.0,0.0,0.0,0.0,0.359,0.029,12.541,0.0,-0.118,1.287,0.0,0.0,0.0,0.0,0.0,0.0,-0.033,0.0,0.0,-0.002,0.0,0.0,0.0,0.056,0.0,0.0,54.04,48.946,0.162,1467.341
4.013,-64.995,2015.602,0.0,53.08,9.76,0.0,0.0,0.0,0.085,0.996,0.0,0.0,0.056,-2123.276,7953.426,0.0,-0.67,-0.0,0.0,0.0,0.0,-0.053,0.0,0.0,0.0,0.0,0.359,0.029,12.552,0.0,-0.118,1.286,0.0,0.0,0.0,0.0,0.0,0.0,-0.033,0.0,0.0,-0.002,0.0,0.0,0.0,0.056,0.0,0.0,53.993,48.903,0.162,1464.807
4.03,-64.115,2015.764,0.0,53.026,9.8,0.0,0.0,0.0,0.086,0.996,0.0,0.0,0.056,-2128.906,7947.459,0.0,-0.665,-0.0,0.0,0.0,0.0,-0.053,0.0,0.0,0.0,0.0,0.36,0.029,12.563,0.0,-0.117,1.285,0.0,0.0,0.0,0.0,0.0,0.0,-0.033,0.0,0.0,-0.002,0.0,0.0,0.0,0.056,0.0,0.0,53.947,48.861,0.162,1462.283
4.046,-63.235,2015.927,0.0,52.972,9.84,0.0,0.0,0.0,0.086,0.996,0.0,0.0,0.056,-2134.933,7943.392,0.0,-0.659,-0.0,0.0,0.0,0.0,-0.053,0.0,0.0,0.0,0.0,0.36,0.029,12.576,0.0,-0.117,1.285,0.0,0.0,0.0,0.0,0.0,0.0,-0.033,0.0,0.0,-0.002,0.0,0.0,0.0,0.056,0.0,0.0,53.901,48.819,0.162,1459.752
4.063,-62.345,2016.093,0.0,52.916,9.881,0.0,0.0,0.0,0.086,0.996,0.0,0.0,0.056,-2140.532,7937.145,0.0,-0.653,-0.0,0.0,0.0,0.0,-0.053,0.0,0.0,0.0,0.0,0.36,0.029,12.586,0.0,-0.117,1.284,0.0,0.0,0.0,0.0,0.0,0.0,-0.033,0.0,0.0,-0.002,0.0,0.0,0.0,0.056,0.0,0.0,53.854,48.776,0.162,1457.203
4.08,-61.462,2016.258,0.0,52.861,9.921,0.0,0.0,0.0,0.087,0.996,0.0,0.0,0.055,-2145.856,7929.617,0.0,-0.653,-0.0,0.0,0.0,0.0,-0.053,0.0,0.0,0.0,0.0,0.361,0.029,12.595,0.0,-0.117,1.284,0.0,0.0,0.0,0.0,0.0,0.0,-0.033,0.0,0.0,-0.002,0.0,0.0,0.0,0.056,0.0,0.0,53.807,48.733,0.162,1454.643
4.097,-60.569,2016.426,0.0,52.805,9.961,0.0,0.0,0.0,0.088,0.996,0.0,0.0,0.055,-2151.764,7924.795,0.0,-0.647,-0.0,0.0,0.0,0.0,-0.053,0.0,0.0,0.0,0.0,0.361,0.029,12.608,0.0,-0.116,1.283,0.0,0.0,0.0,0.0,0.0,0.0,-0.033,0.0,0.0,-0.002,0.0,0.0,0.0,0.055,0.0,0.0,53.76,48.69,0.162,1452.07
4.113,-59.714,2016.588,0.0,52.751,9.999,0.0,0.0,0.0,0.088,0.996,0.0,0.0,0.055,-2156.894,7916.931,0.0,-0.642,-0.0,0.0,0.0,0.0,-0.053,0.0,0.0,0.0,0.0,0.362,0.029,12.616,0.0,-0.116,1.282,0.0,0.0,0.0,0.0,0.0,0.0,-0.033,0.0,0.0,-0.002,0.0,0.0,0.0,0.055,0.0,0.0,53.714,48.648,0.162,1449.532
4.13,-58.828,2016.756,0.0,52.696,10.038,0.0,0.0,0.0,0.088,0.996,0.0,0.0,0.055,-2158.352,7892.4,0.0,-0.647,-0.0,0.0,0.0,0.0,-0.053,0.0,0.0,0.0,0.0,0.361,0.029,12.607,0.0,-0.116,1.278,0.0,0.0,0.0,0.0,0.0,0.0,-0.033,0.0,0.0,-0.002,0.0,0.0,0.0,0.055,0.0,0.0,53.667,48.605,0.161,1446.993
4.146,-57.949,2016.924,0.0,52.64,10.077,0.0,0.0,0.0,0.089,0.996,0.0,0.0,0.055,-2163.808,7886.305,0.0,-0.642,-0.0,0.0,0.0,0.0,-0.053,0.0,0.0,0.0,0.0,0.362,0.029,12.618,0.0,-0.116,1.278,0.0,0.0,0.0,0.0,0.0,0.0,-0.033,0.0,0.0,-0.002,0.0,0.0,0.0,0.055,0.0,0.0,53.62,48.562,0.161,1444.412
4.163,-57.075,2017.092,0.0,52.585,10.116,0.0,0.0,0.0,0.089,0.996,0.0,0.0,0.054,-2169.835,7883.077,0.0,-0.636,-0.0,0.0,0.0,0.0,-0.053,0.0,0.0,0.0,0.0,0.362,0.029,12.632,0.0,-0.115,1.278,0.0,0.0,0.0,0.0,0.0,0.0,-0.033,0.0,0.0,-0.002,0.0,0.0,0.0,0.054,0.0,0.0,53.572,48.518,0.161,1441.843
4.18,-56.198,2017.261,0.0,52.529,10.154,0.0,0.0,0.0,0.09,0.996,0.0,0.0,0.054,-2175.511,7878.24,0.0,-0.63,-0.0,0.0,0.0,0.0,-0.053,0.0,0.0,0.0,0.0,0.363,0.029,12.644,0.0,-0.115,1.277,0.0,0.0,0.0,0.0,0.0,0.0,-0.033,0.0,0.0,-0.002,0.0,0.0,0.0,0.054,0.0,0.0,53.525,48.475,0.161,1439.271
4.196,-55.326,2017.43,0.0,52.473,10.193,0.0,0.0,0.0,0.09,0.996,0.0,0.0,0.054,-2181.026,7872.716,0.0,-0.625,-0.0,0.0,0.0,0.0,-0.053,0.0,0.0,0.0,0.0,0.363,0.029,12.656,0.0,-0.115,1.276,0.0,0.0,0.0,0.0,0.0,0.0,-0.033,0.0,0.0,-0.002,0.0,0.0,0.0,0.054,0.0,0.0,53.478,48.432,0.161,1436.693
4.213,-54.45,2017.6,0.0,52.417,10.23,0.0,0.0,0.0,0.091,0.996,0.0,0.0,0.054,-2181.952,7846.539,0.0,-0.63,-0.0,0.0,0.0,0.0,-0.053,0.0,0.0,0.0,0.0,0.363,0.029,12.645,0.0,-0.115,1.272,0.0,0.0,0.0,0.0,0.0,0.0,-0.033,0.0,0.0,-0.002,0.0,0.0,0.0,0.054,0.0,0.0,53.43,48.388,0.161,1434.112
4.23,-53.575,2017.772,0.0,52.361,10.268,0.0,0.0,0.0,0.091,0.996,0.0,0.0,0.054,-2182.444,7818.968,0.0,-0.636,-0.0,0.0,0.0,0.0,-0.053,0.0,0.0,0.0,0.0,0.362,0.029,12.632,0.0,-0.115,1.268,0.0,0.0,0.0,0.0,0.0,0.0,-0.033,0.0,0.0,-0.002,0.0,0.0,0.0,0.054,0.0,0.0,53.382,48.344,0.161,1431.518
4.246,-52.701,2017.943,0.0,52.305,10.304,0.0,0.0,0.0,0.092,0.996,0.0,0.0,0.053,-2183.571,7794.872,0.0,-0.642,-0.0,0.0,0.0,0.0,-0.053,0.0,0.0,0.0,0.0,0.362,0.029,12.623,0.0,-0.114,1.265,0.0,0.0,0.0,0.0,0.0,0.0,-0.033,0.0,0.0,-0.002,0.0,0.0,0.0,0.054,0.0,0.0,53.334,48.3,0.16,1428.921
4.263,-51.834,2018.115,0.0,52.249,10.34,0.0,0.0,0.0,0.092,0.996,0.0,0.0,0.053,-2184.35,7769.848,0.0,-0.642,-0.0,0.0,0.0,0.0,-0.053,0.0,0.0,0.0,0.0,0.362,0.029,12.613,0.0,-0.114,1.261,0.0,0.0,0.0,0.0,0.0,0.0,-0.033,0.0,0.0,-0.002,0.0,0.0,0.0,0.053,0.0,0.0,53.286,48.257,0.16,1426.33
4.28,-50.962,2018.288,0.0,52.193,10.375,0.0,0.0,0.0,0.092,0.996,0.0,0.0,0.053,-2185.426,7746.732,0.0,-0.647,-0.0,0.0,0.0,0.0,-0.053,0.0,0.0,0.0,0.0,0.361,0.029,12.605,0.0,-0.114,1.258,0.0,0.0,0.0,0.0,0.0,0.0,-0.033,0.0,0.0,-0.002,0.0,0.0,0.0,0.053,0.0,0.0,53.238,48.213,0.16,1423.734
4.296,-50.09,2018.461,0.0,52.137,10.41,0.0,0.0,0.0,0.093,0.996,0.0,0.0,0.053,-2186.972,7726.071,0.0,-0.647,-0.0,0.0,0.0,0.0,-0.053,0.0,0.0,0.0,0.0,0.361,0.029,12.6,0.0,-0.114,1.254,0.0,0.0,0.0,0.0,0.0,0.0,-0.033,0.0,0.0,-0.002,0.0,0.0,0.0,0.053,0.0,0.0,53.19,48.169,0.16,1421.132
4.313,-49.225,2018.634,0.0,52.081,10.444,0.0,0.0,0.0,0.093,0.996,0.0,0.0,0.053,-2188.154,7704.377,0.0,-0.653,-0.0,0.0,0.0,0.0,-0.053,0.0,0.0,0.0,0.0,0.361,0.029,12.593,0.0,-0.114,1.251,0.0,0.0,0.0,0.0,0.0,0.0,-0.033,0.0,0.0,-0.002,0.0,0.0,0.0,0.053,0.0,0.0,53.142,48.124,0.16,1418.531
4.33,-48.356,2018.809,0.0,52.024,10.477,0.0,0.0,0.0,0.094,0.996,0.0,0.0,0.052,-2189.576,7684.166,0.0,-0.653,-0.0,0.0,0.0,0.0,-0.053,0.0,0.0,0.0,0.0,0.361,0.029,12.589,0.0,-0.114,1.248,0.0,0.0,0.0,0.0,0.0,0.0,-0.033,0.0,0.0,-0.002,0.0,0.0,0.0,0.052,0.0,0.0,53.093,48.08,0.16,1415.926
4.346,-47.493,2018.983,0.0,51.968,10.51,0.0,0.0,0.0,0.094,0.996,0.0,0.0,0.052,-2191.456,7666.369,0.0,-0.653,-0.0,0.0,0.0,0.0,-0.053,0.0,0.0,0.0,0.0,0.36,0.029,12.587,0.0,-0.113,1.246,0.0,0.0,0.0,0.0,0.0,0.0,-0.033,0.0,0.0,-0.002,0.0,0.0,0.0,0.052,0.0,0.0,53.045,48.036,0.16,1413.318
4.363,-46.626,2019.159,0.0,51.912,10.543,0.0,0.0,0.0,0.094,0.996,0.0,0.0,0.052,-2193.092,7647.913,0.0,-0.653,-0.0,0.0,0.0,0.0,-0.053,0.0,0.0,0.0,0.0,0.36,0.029,12.584,0.0,-0.113,1.243,0.0,0.0,0.0,0.0,0.0,0.0,-0.033,0.0,0.0,-0.002,0.0,0.0,0.0,0.052,0.0,0.0,52.996,47.992,0.159,1410.707
4.38,-45.759,2019.335,0.0,51.856,10.575,0.0,0.0,0.0,0.095,0.996,0.0,0.0,0.052,-2195.22,7631.912,0.0,-0.653,-0.0,0.0,0.0,0.0,-0.053,0.0,0.0,0.0,0.0,0.36,0.029,12.584,0.0,-0.113,1.241,0.0,0.0,0.0,0.0,0.0,0.0,-0.033,0.0,0.0,-0.001,0.0,0.0,0.0,0.052,0.0,0.0,52.948,47.947,0.159,1408.088
4.396,-44.899,2019.511,0.0,51.8,10.607,0.0,0.0,0.0,0.095,0.996,0.0,0.0,0.052,-2196.911,7614.406,0.0,-0.653,-0.0,0.0,0.0,0.0,-0.053,0.0,0.0,0.0,0.0,0.36,0.029,12.582,0.0,-0.113,1.238,0.0,0.0,0.0,0.0,0.0,0.0,-0.033,0.0,0.0,-0.001,0.0,0.0,0.0,0.052,0.0,0.0,52.899,47.902,0.159,1405.473
4.413,-44.034,2019.688,0.0,51.743,10.638,0.0,0.0,0.0,0.096,0.995,0.0,0.0,0.051,-2198.82,7598.168,0.0,-0.653,-0.0,0.0,0.0,0.0,-0.053,0.0,0.0,0.0,0.0,0.36,0.029,12.582,0.0,-0.112,1.236,0.0,0.0,0.0,0.0,0.0,0.0,-0.033,0.0,0.0,-0.001,0.0,0.0,0.0,0.052,0.0,0.0,52.85,47.858,0.159,1402.856
4.429,-43.176,2019.865,0.0,51.687,10.669,0.0,0.0,0.0,0.096,0.995,0.0,0.0,0.051,-2201.206,7584.342,0.0,-0.653,-0.0,0.0,0.0,0.0,-0.053,0.0,0.0,0.0,0.0,0.36,0.029,12.584,0.0,-0.112,1.234,0.0,0.0,0.0,0.0,0.0,0.0,-0.033,0.0,0.0,-0.001,0.0,0.0,0.0,0.051,0.0,0.0,52.801,47.813,0.159,1400.234
4.446,-42.308,2020.045,0.0,51.63,10.7,0.0,0.0,0.0,0.096,0.995,0.0,0.0,0.051,-2203.329,7569.555,0.0,-0.653,-0.0,0.0,0.0,0.0,-0.053,0.0,0.0,0.0,0.0,0.36,0.029,12.585,0.0,-0.112,1.232,0.0,0.0,0.0,0.0,0.0,0.0,-0.033,0.0,0.0,-0.001,0.0,0.0,0.0,0.051,0.0,0.0,52.752,47.768,0.159,1397.603
4.463,-41.451,2020.223,0.0,51.574,10.73,0.0,0.0,0.0,0.097,0.995,0.0,0.0,0.051,-2205.766,7556.386,0.0,-0.653,-0.0,0.0,0.0,0.0,-0.053,0.0,0.0,0.0,0.0,0.361,0.029,12.589,0.0,-0.112,1.23,0.0,0.0,0.0,0.0,0.0,0.0,-0.033,0.0,0.0,-0.001,0.0,0.0,0.0,0.051,0.0,0.0,52.703,47.723,0.158,1394.971
4.48,-40.585,2020.403,0.0,51.517,10.761,0.0,0.0,0.0,0.097,0.995,0.0,0.0,0.051,-2208.021,7542.683,0.0,-0.653,-0.0,0.0,0.0,0.0,-0.053,0.0,0.0,0.0,0.0,0.361,0.029,12.591,0.0,-0.112,1.228,0.0,0.0,0.0,0.0,0.0,0.0,-0.033,0.0,0.0,-0.001,0.0,0.0,0.0,0.051,0.0,0.0,52.653,47.678,0.158,1392.336
4.496,-39.73,2020.582,0.0,51.46,10.79,0.0,0.0,0.0,0.098,0.995,0.0,0.0,0.051,-2210.063,7528.334,0.0,-0.647,-0.0,0.0,0.0,0.0,-0.053,0.0,0.0,0.0,0.0,0.361,0.029,12.593,0.0,-0.111,1.226,0.0,0.0,0.0,0.0,0.0,0.0,-0.033,0.0,0.0,-0.001,0.0,0.0,0.0,0.051,0.0,0.0,52.604,47.633,0.158,1389.695
4.513,-38.877,2020.762,0.0,51.404,10.819,0.0,0.0,0.0,0.098,0.995,0.0,0.0,0.051,-2212.949,7517.936,0.0,-0.647,-0.0,0.0,0.0,0.0,-0.053,0.0,0.0,0.0,0.0,0.361,0.029,12.6,0.0,-0.111,1.224,0.0,0.0,0.0,0.0,0.0,0.0,-0.033,0.0,0.0,-0.001,0.0,0.0,0.0,0.051,0.0,0.0,52.555,47.588,0.158,1387.071
4.529,-38.024,2020.941,0.0,51.347,10.848,0.0,0.0,0.0,0.098,0.995,0.0,0.0,0.051,-2215.319,7505.566,0.0,-0.647,-0.0,0.0,0.0,0.0,-0.053,0.0,0.0,0.0,0.0,0.361,0.029,12.604,0.0,-0.111,1.223,0.0,0.0,0.0,0.0,0.0,0.0,-0.033,0.0,0.0,-0.001,0.0,0.0,0.0,0.051,0.0,0.0,52.505,47.543,0.158,1384.443
4.546,-37.156,2021.125,0.0,51.289,10.877,0.0,0.0,0.0,0.099,0.995,0.0,0.0,0.05,-2217.807,7493.696,0.0,-0.642,-0.0,0.0,0.0,0.0,-0.053,0.0,0.0,0.0,0.0,0.361,0.029,12.608,0.0,-0.111,1.221,0.0,0.0,0.0,0.0,0.0,0.0,-0.033,0.0,0.0,-0.001,0.0,0.0,0.0,0.05,0.0,0.0,52.455,47.497,0.158,1381.787
4.563,-36.306,2021.306,0.0,51.233,10.906,0.0,0.0,0.0,0.099,0.995,0.0,0.0,0.05,-2220.431,7482.606,0.0,-0.642,-0.0,0.0,0.0,0.0,-0.053,0.0,0.0,0.0,0.0,0.362,0.029,12.614,0.0,-0.11,1.22,0.0,0.0,0.0,0.0,0.0,0.0,-0.033,0.0,0.0,-0.001,0.0,0.0,0.0,0.05,0.0,0.0,52.405,47.451,0.158,1379.128
4.58,-35.456,2021.487,0.0,51.176,10.934,0.0,0.0,0.0,0.1,0.995,0.0,0.0,0.05,-2222.951,7471.471,0.0,-0.636,-0.0,0.0,0.0,0.0,-0.053,0.0,0.0,0.0,0.0,0.362,0.029,12.62,0.0,-0.11,1.218,0.0,0.0,0.0,0.0,0.0,0.0,-0.033,0.0,0.0,-0.001,0.0,0.0,0.0,0.05,0.0,0.0,52.356,47.406,0.158,1376.492
4.596,-34.601,2021.67,0.0,51.119,10.962,0.0,0.0,0.0,0.1,0.995,0.0,0.0,0.05,-2226.061,7462.913,0.0,-0.636,-0.0,0.0,0.0,0.0,-0.053,0.0,0.0,0.0,0.0,0.362,0.029,12.629,0.0,-0.11,1.217,0.0,0.0,0.0,0.0,0.0,0.0,-0.033,0.0,0.0,-0.001,0.0,0.0,0.0,0.05,0.0,0.0,52.306,47.36,0.157,1373.844
4.613,-33.748,2021.853,0.0,51.061,10.989,0.0,0.0,0.0,0.1,0.995,0.0,0.0,0.05,-2228.522,7451.707,0.0,-0.63,-0.0,0.0,0.0,0.0,-0.053,0.0,0.0,0.0,0.0,0.362,0.029,12.634,0.0,-0.11,1.215,0.0,0.0,0.0,0.0,0.0,0.0,-0.033,0.0,0.0,-0.001,0.0,0.0,0.0,0.05,0.0,0.0,52.256,47.315,0.157,1371.187
4.63,-32.901,2022.036,0.0,51.004,11.017,0.0,0.0,0.0,0.101,0.995,0.0,0.0,0.049,-2231.018,7440.9,0.0,-0.63,-0.0,0.0,0.0,0.0,-0.053,0.0,0.0,0.0,0.0,0.363,0.029,12.64,0.0,-0.11,1.214,0.0,0.0,0.0,0.0,0.0,0.0,-0.033,0.0,0.0,-0.001,0.0,0.0,0.0,0.05,0.0,0.0,52.206,47.269,0.157,1368.534
4.646,-32.055,2022.219,0.0,50.947,11.044,0.0,0.0,0.0,0.101,0.995,0.0,0.0,0.049,-2234.247,7433.38,0.0,-0.625,-0.0,0.0,0.0,0.0,-0.053,0.0,0.0,0.0,0.0,0.363,0.029,12.65,0.0,-0.109,1.213,0.0,0.0,0.0,0.0,0.0,0.0,-0.033,0.0,0.0,-0.002,0.0,0.0,0.0,0.049,0.0,0.0,52.156,47.223,0.157,1365.887
4.663,-31.205,2022.404,0.0,50.89,11.071,0.0,0.0,0.0,0.102,0.995,0.0,0.0,0.049,-2236.958,7423.784,0.0,-0.619,-0.0,0.0,0.0,0.0,-0.053,0.0,0.0,0.0,0.0,0.364,0.029,12.658,0.0,-0.109,1.212,0.0,0.0,0.0,0.0,0.0,0.0,-0.033,0.0,0.0,-0.002,0.0,0.0,0.0,0.049,0.0,0.0,52.105,47.177,0.157,1363.228
4.68,-30.355,2022.589,0.0,50.832,11.097,0.0,0.0,0.0,0.102,0.995,0.0,0.0,0.049,-2240.1,7415.982,0.0,-0.619,-0.0,0.0,0.0,0.0,-0.053,0.0,0.0,0.0,0.0,0.364,0.029,12.668,0.0,-0.109,1.21,0.0,0.0,0.0,0.0,0.0,0.0,-0.033,0.0,0.0,-0.002,0.0,0.0,0.0,0.049,0.0,0.0,52.055,47.131,0.157,1360.561
4.696,-29.507,2022.774,0.0,50.775,11.124,0.0,0.0,0.0,0.102,0.995,0.0,0.0,0.049,-2242.707,7406.116,0.0,-0.613,-0.0,0.0,0.0,0.0,-0.053,0.0,0.0,0.0,0.0,0.364,0.029,12.675,0.0,-0.108,1.209,0.0,0.0,0.0,0.0,0.0,0.0,-0.033,0.0,0.0,-0.002,0.0,0.0,0.0,0.049,0.0,0.0,52.004,47.085,0.156,1357.891
4.713,-28.664,2022.959,0.0,50.717,11.15,0.0,0.0,0.0,0.103,0.995,0.0,0.0,0.048,-2245.369,7396.716,0.0,-0.607,-0.0,0.0,0.0,0.0,-0.053,0.0,0.0,0.0,0.0,0.364,0.029,12.683,0.0,-0.108,1.208,0.0,0.0,0.0,0.0,0.0,0.0,-0.033,0.0,0.0,-0.002,0.0,0.0,0.0,0.048,0.0,0.0,51.954,47.038,0.156,1355.23
4.729,-27.823,2023.144,0.0,50.66,11.176,0.0,0.0,0.0,0.103,0.995,0.0,0.0,0.048,-2248.746,7390.407,0.0,-0.607,-0.0,0.0,0.0,0.0,-0.053,0.0,0.0,0.0,0.0,0.365,0.029,12.695,0.0,-0.108,1.207,0.0,0.0,0.0,0.0,0.0,0.0,-0.033,0.0,0.0,-0.002,0.0,0.0,0.0,0.048,0.0,0.0,51.903,46.992,0.156,1352.576
4.746,-26.978,2023.331,0.0,50.602,11.202,0.0,0.0,0.0,0.104,0.995,0.0,0.0,0.048,-2251.59,7381.992,0.0,-0.602,-0.0,0.0,0.0,0.0,-0.053,0.0,0.0,0.0,0.0,0.365,0.029,12.704,0.0,-0.108,1.206,0.0,0.0,0.0,0.0,0.0,0.0,-0.033,0.0,0.0,-0.002,0.0,0.0,0.0,0.048,0.0,0.0,51.853,46.946,0.156,1349.91
4.763,-26.133,2023.519,0.0,50.544,11.228,0.0,0.0,0.0,0.104,0.995,0.0,0.0,0.048,-2254.879,7375.39,0.0,-0.596,-0.0,0.0,0.0,0.0,-0.053,0.0,0.0,0.0,0.0,0.366,0.029,12.715,0.0,-0.108,1.205,0.0,0.0,0.0,0.0,0.0,0.0,-0.033,0.0,0.0,-0.002,0.0,0.0,0.0,0.048,0.0,0.0,51.802,46.9,0.156,1347.236
4.78,-25.289,2023.706,0.0,50.486,11.253,0.0,0.0,0.0,0.104,0.994,0.0,0.0,0.048,-2257.621,7366.695,0.0,-0.59,-0.0,0.0,0.0,0.0,-0.053,0.0,0.0,0.0,0.0,0.366,0.029,12.724,0.0,-0.107,1.204,0.0,0.0,0.0,0.0,0.0,0.0,-0.033,0.0,0.0,-0.002,0.0,0.0,0.0,0.048,0.0,0.0,51.751,46.853,0.156,1344.559
4.796,-24.452,2023.893,0.0,50.428,11.278,0.0,0.0,0.0,0.105,0.994,0.0,0.0,0.047,-2260.936,7360.449,0.0,-0.584,-0.0,0.0,0.0,0.0,-0.053,0.0,0.0,0.0,0.0,0.367,0.029,12.736,0.0,-0.107,1.203,0.0,0.0,0.0,0.0,0.0,0.0,-0.033,0.0,0.0,-0.002,0.0,0.0,0.0,0.048,0.0,0.0,51.7,46.806,0.156,1341.886
4.813,-23.6,2024.084,0.0,50.37,11.304,0.0,0.0,0.0,0.105,0.994,0.0,0.0,0.047,-2263.833,7352.495,0.0,-0.584,-0.0,0.0,0.0,0.0,-0.053,0.0,0.0,0.0,0.0,0.367,0.029,12.746,0.0,-0.107,1.202,0.0,0.0,0.0,0.0,0.0,0.0,-0.033,0.0,0.0,-0.002,0.0,0.0,0.0,0.047,0.0,0.0,51.648,46.759,0.155,1339.198
4.83,-22.764,2024.272,0.0,50.312,11.328,0.0,0.0,0.0,0.106,0.994,0.0,0.0,0.047,-2266.366,7343.231,0.0,-0.579,-0.0,0.0,0.0,0.0,-0.053,0.0,0.0,0.0,0.0,0.368,0.029,12.754,0.0,-0.106,1.201,0.0,0.0,0.0,0.0,0.0,0.0,-0.033,0.0,0.0,-0.002,0.0,0.0,0.0,0.047,0.0,0.0,51.597,46.712,0.155,1336.503
4.846,-21.935,2024.459,0.0,50.254,11.353,0.0,0.0,0.0,0.106,0.994,0.0,0.0,0.047,-2269.87,7338.173,0.0,-0.573,-0.0,0.0,0.0,0.0,-0.053,0.0,0.0,0.0,0.0,0.368,0.029,12.767,0.0,-0.106,1.2,0.0,0.0,0.0,0.0,0.0,0.0,-0.033,0.0,0.0,-0.002,0.0,0.0,0.0,0.047,0.0,0.0,51.546,46.666,0.155,1333.839
4.863,-21.101,2024.648,0.0,50.196,11.377,0.0,0.0,0.0,0.106,0.994,0.0,0.0,0.047,-2272.897,7331.239,0.0,-0.567,-0.0,0.0,0.0,0.0,-0.053,0.0,0.0,0.0,0.0,0.368,0.029,12.778,0.0,-0.106,1.2,0.0,0.0,0.0,0.0,0.0,0.0,-0.033,0.0,0.0,-0.002,0.0,0.0,0.0,0.047,0.0,0.0,51.495,46.619,0.155,1331.176
4.88,-20.258,2024.839,0.0,50.137,11.402,0.0,0.0,0.0,0.107,0.994,0.0,0.0,0.046,-2276.439,7326.284,0.0,-0.561,-0.0,0.0,0.0,0.0,-0.053,0.0,0.0,0.0,0.0,0.369,0.029,12.792,0.0,-0.106,1.199,0.0,0.0,0.0,0.0,0.0,0.0,-0.033,0.0,0.0,-0.002,0.0,0.0,0.0,0.046,0.0,0.0,51.443,46.572,0.155,1328.487
4.896,-19.416,2025.031,0.0,50.078,11.426,0.0,0.0,0.0,0.107,0.994,0.0,0.0,0.046,-2279.136,7317.933,0.0,-0.556,-0.0,0.0,0.0,0.0,-0.053,0.0,0.0,0.0,0.0,0.37,0.029,12.802,0.0,-0.105,1.198,0.0,0.0,0.0,0.0,0.0,0.0,-0.033,0.0,0.0,-0.002,0.0,0.0,0.0,0.046,0.0,0.0,51.391,46.525,0.155,1325.78
4.913,-18.586,2025.221,0.0,50.02,11.45,0.0,0.0,0.0,0.108,0.994,0.0,0.0,0.046,-2282.42,7312.083,0.0,-0.55,-0.0,0.0,0.0,0.0,-0.053,0.0,0.0,0.0,0.0,0.37,0.029,12.814,0.0,-0.105,1.197,0.0,0.0,0.0,0.0,0.0,0.0,-0.033,0.0,0.0,-0.002,0.0,0.0,0.0,0.046,0.0,0.0,51.34,46.477,0.154,1323.086
4.93,-17.751,2025.412,0.0,49.961,11.474,0.0,0.0,0.0,0.108,0.994,0.0,0.0,0.046,-2285.381,7305.132,0.0,-0.55,-0.0,0.0,0.0,0.0,-0.053,0.0,0.0,0.0,0.0,0.37,0.029,12.826,0.0,-0.105,1.196,0.0,0.0,0.0,0.0,0.0,0.0,-0.033,0.0,0.0,-0.002,0.0,0.0,0.0,0.046,0.0,0.0,51.288,46.43,0.154,1320.397
4.946,-16.927,2025.602,0.0,49.903,11.497,0.0,0.0,0.0,0.108,0.994,0.0,0.0,0.046,-2288.212,7297.798,0.0,-0.544,-0.0,0.0,0.0,0.0,-0.053,0.0,0.0,0.0,0.0,0.371,0.029,12.836,0.0,-0.105,1.195,0.0,0.0,0.0,0.0,0.0,0.0,-0.033,0.0,0.0,-0.002,0.0,0.0,0.0,0.046,0.0,0.0,51.236,46.383,0.154,1317.716
4.963,-16.094,2025.794,0.0,49.844,11.521,0.0,0.0,0.0,0.109,0.994,0.0,0.0,0.045,-2291.909,7293.907,0.0,-0.539,-0.0,0.0,0.0,0.0,-0.053,0.0,0.0,0.0,0.0,0.372,0.029,12.851,0.0,-0.104,1.195,0.0,0.0,0.0,0.0,0.0,0.0,-0.033,0.0,0.0,-0.002,0.0,0.0,0.0,0.046,0.0,0.0,51.185,46.336,0.154,1315.031
4.98,-15.262,2025.986,0.0,49.785,11.544,0.0,0.0,0.0,0.109,0.994,0.0,0.0,0.045,-2294.745,7286.607,0.0,-0.533,-0.0,0.0,0.0,0.0,-0.053,0.0,0.0,0.0,0.0,0.372,0.029,12.862,0.0,-0.104,1.194,0.0,0.0,0.0,0.0,0.0,0.0,-0.033,0.0,0.0,-0.002,0.0,0.0,0.0,0.045,0.0,0.0,51.132,46.288,0.154,1312.328
4.996,-14.431,2026.18,0.0,49.726,11.568,0.0,0.0,0.0,0.11,0.994,0.0,0.0,0.045,-2298.196,7281.758,0.0,-0.527,-0.0,0.0,0.0,0.0,-0.053,0.0,0.0,0.0,0.0,0.373,0.029,12.876,0.0,-0.104,1.193,0.0,0.0,0.0,0.0,0.0,0.0,-0.033,0.0,0.0,-0.002,0.0,0.0,0.0,0.045,0.0,0.0,51.08,46.24,0.154,1309.623
5.013,-13.606,2026.372,0.0,49.668,11.591,0.0,0.0,0.0,0.11,0.994,0.0,0.0,0.045,-2301.037,7274.662,0.0,-0.521,-0.0,0.0,0.0,0.0,-0.053,0.0,0.0,0.0,0.0,0.373,0.029,12.888,0.0,-0.104,1.192,0.0,0.0,0.0,0.0,0.0,0.0,-0.033,0.0,0.0,-0.002,0.0,0.0,0.0,0.045,0.0,0.0,51.028,46.193,0.154,1306.928
5.029,-12.782,2026.564,0.0,49.609,11.614,0.0,0.0,0.0,0.11,0.994,0.0,0.0,0.045,-2304.593,7270.413,0.0,-0.516,-0.0,0.0,0.0,0.0,-0.053,0.0,0.0,0.0,0.0,0.374,0.029,12.902,0.0,-0.103,1.192,0.0,0.0,0.0,0.0,0.0,0.0,-0.033,0.0,0.0,-0.002,0.0,0.0,0.0,0.045,0.0,0.0,50.976,46.145,0.153,1304.236
5.046,-11.954,2026.758,0.0,49.549,11.636,0.0,0.0,0.0,0.111,0.994,0.0,0.0,0.044,-2307.526,7263.76,0.0,-0.51,-0.0,0.0,0.0,0.0,-0.053,0.0,0.0,0.0,0.0,0.374,0.029,12.914,0.0,-0.103,1.191,0.0,0.0,0.0,0.0,0.0,0.0,-0.033,0.0,0.0,-0.002,0.0,0.0,0.0,0.044,0.0,0.0,50.924,46.097,0.153,1301.533
5.063,-11.127,2026.953,0.0,49.49,11.659,0.0,0.0,0.0,0.111,0.994,0.0,0.0,0.044,-2310.341,7256.663,0.0,-0.504,-0.0,0.0,0.0,0.0,-0.053,0.0,0.0,0.0,0.0,0.375,0.029,12.926,0.0,-0.103,1.19,0.0,0.0,0.0,0.0,0.0,0.0,-0.033,0.0,0.0,-0.002,0.0,0.0,0.0,0.044,0.0,0.0,50.871,46.049,0.153,1298.823
5.08,-10.301,2027.148,0.0,49.431,11.682,0.0,0.0,0.0,0.112,0.994,0.0,0.0,0.044,-2313.783,7252.029,0.0,-0.498,-0.0,0.0,0.0,0.0,-0.053,0.0,0.0,0.0,0.0,0.375,0.029,12.94,0.0,-0.102,1.19,0.0,0.0,0.0,0.0,0.0,0.0,-0.033,0.0,0.0,-0.002,0.0,0.0,0.0,0.044,0.0,0.0,50.818,46.001,0.153,1296.11
5.096,-9.481,2027.342,0.0,49.371,11.704,0.0,0.0,0.0,0.112,0.994,0.0,0.0,0.044,-2316.603,7245.134,0.0,-0.493,-0.0,0.0,0.0,0.0,-0.053,0.0,0.0,0.0,0.0,0.376,0.029,12.952,0.0,-0.102,1.189,0.0,0.0,0.0,0.0,0.0,0.0,-0.033,0.0,0.0,-0.002,0.0,0.0,0.0,0.044,0.0,0.0,50.766,45.953,0.153,1293.407
5.113,-8.657,2027.538,0.0,49.312,11.726,0.0,0.0,0.0,0.112,0.994,0.0,0.0,0.044,-2320.192,7241.248,0.0,-0.487,-0.0,0.0,0.0,0.0,-0.053,0.0,0.0,0.0,0.0,0.376,0.029,12.967,0.0,-0.102,1.188,0.0,0.0,0.0,0.0,0.0,0.0,-0.033,0.0,0.0,-0.002,0.0,0.0,0.0,0.044,0.0,0.0,50.713,45.905,0.153,1290.698
5.13,-7.829,2027.735,0.0,49.252,11.748,0.0,0.0,0.0,0.113,0.994,0.0,0.0,0.043,-2322.967,7234.192,0.0,-0.481,-0.0,0.0,0.0,0.0,-0.053,0.0,0.0,0.0,0.0,0.377,0.029,12.979,0.0,-0.102,1.188,0.0,0.0,0.0,0.0,0.0,0.0,-0.033,0.0,0.0,-0.002,0.0,0.0,0.0,0.043,0.0,0.0,50.66,45.856,0.152,1287.974
5.146,-7.007,2027.931,0.0,49.192,11.77,0.0,0.0,0.0,0.113,0.994,0.0,0.0,0.043,-2326.282,7229.267,0.0,-0.476,-0.0,0.0,0.0,0.0,-0.053,0.0,0.0,0.0,0.0,0.378,0.029,12.993,0.0,-0.101,1.187,0.0,0.0,0.0,0.0,0.0,0.0,-0.033,0.0,0.0,-0.003,0.0,0.0,0.0,0.043,0.0,0.0,50.607,45.808,0.152,1285.25
5.163,-6.196,2028.126,0.0,49.133,11.792,0.0,0.0,0.0,0.113,0.994,0.0,0.0,0.043,-2329.041,7222.424,0.0,-0.47,-0.0,0.0,0.0,0.0,-0.053,0.0,0.0,0.0,0.0,0.378,0.029,13.005,0.0,-0.101,1.186,0.0,0.0,0.0,0.0,0.0,0.0,-0.033,0.0,0.0,-0.003,0.0,0.0,0.0,0.043,0.0,0.0,50.554,45.76,0.152,1282.546
5.18,-5.376,2028.323,0.0,49.073,11.813,0.0,0.0,0.0,0.114,0.994,0.0,0.0,0.042,-2327.191,7198.587,0.0,-0.47,-0.0,0.0,0.0,0.0,-0.053,0.0,0.0,0.0,0.0,0.378,0.029,12.997,0.0,-0.101,1.183,0.0,0.0,0.0,0.0,0.0,0.0,-0.033,0.0,0.0,-0.002,0.0,0.0,0.0,0.042,0.0,0.0,50.502,45.712,0.152,1279.842
5.196,-4.562,2028.519,0.0,49.014,11.834,0.0,0.0,0.0,0.114,0.994,0.0,0.0,0.042,-2330.164,7192.958,0.0,-0.464,-0.0,0.0,0.0,0.0,-0.053,0.0,0.0,0.0,0.0,0.378,0.029,13.01,0.0,-0.1,1.182,0.0,0.0,0.0,0.0,0.0,0.0,-0.033,0.0,0.0,-0.002,0.0,0.0,0.0,0.042,0.0,0.0,50.448,45.663,0.152,1277.128
5.213,-3.744,2028.717,0.0,48.954,11.854,0.0,0.0,0.0,0.114,0.993,0.0,0.0,0.042,-2327.744,7167.48,0.0,-0.47,-0.0,0.0,0.0,0.0,-0.053,0.0,0.0,0.0,0.0,0.378,0.029,13.0,0.0,-0.1,1.178,0.0,0.0,0.0,0.0,0.0,0.0,-0.033,0.0,0.0,-0.002,0.0,0.0,0.0,0.042,0.0,0.0,50.395,45.614,0.152,1274.414
5.23,-2.927,2028.915,0.0,48.894,11.874,0.0,0.0,0.0,0.115,0.993,0.0,0.0,0.042,-2326.088,7145.212,0.0,-0.47,-0.0,0.0,0.0,0.0,-0.053,0.0,0.0,0.0,0.0,0.378,0.029,12.994,0.0,-0.1,1.175,0.0,0.0,0.0,0.0,0.0,0.0,-0.033,0.0,0.0,-0.002,0.0,0.0,0.0,0.042,0.0,0.0,50.342,45.566,0.151,1271.691
5.246,-2.116,2029.112,0.0,48.835,11.893,0.0,0.0,0.0,0.115,0.993,0.0,0.0,0.041,-2323.977,7121.72,0.0,-0.476,-0.0,0.0,0.0,0.0,-0.053,0.0,0.0,0.0,0.0,0.377,0.029,12.985,0.0,-0.1,1.171,0.0,0.0,0.0,0.0,0.0,0.0,-0.033,0.0,0.0,-0.002,0.0,0.0,0.0,0.042,0.0,0.0,50.289,45.517,0.151,1268.973
5.263,-1.301,2029.311,0.0,48.775,11.912,0.0,0.0,0.0,0.115,0.993,0.0,0.0,0.041,-2322.165,7099.728,0.0,-0.476,-0.0,0.0,0.0,0.0,-0.053,0.0,0.0,0.0,0.0,0.377,0.029,12.979,0.0,-0.1,1.168,0.0,0.0,0.0,0.0,0.0,0.0,-0.033,0.0,0.0,-0.002,0.0,0.0,0.0,0.041,0.0,0.0,50.235,45.468,0.151,1266.254
5.28,-0.487,2029.51,0.0,48.715,11.93,0.0,0.0,0.0,0.116,0.993,0.0,0.0,0.041,-2321.082,7080.767,0.0,-0.481,-0.0,0.0,0.0,0.0,-0.053,0.0,0.0,0.0,0.0,0.377,0.029,12.976,0.0,-0.1,1.165,0.0,0.0,0.0,0.0,0.0,0.0,-0.033,0.0,0.0,-0.002,0.0,0.0,0.0,0.041,0.0,0.0,50.182,45.419,0.151,1263.527
5.296,0.322,2029.708,0.0,48.656,11.948,0.0,0.0,0.0,0.116,0.993,0.0,0.0,0.041,-2319.485,7060.249,0.0,-0.481,-0.0,0.0,0.0,0.0,-0.053,0.0,0.0,0.0,0.0,0.377,0.029,12.972,0.0,-0.099,1.162,0.0,0.0,0.0,0.0,0.0,0.0,-0.033,0.0,0.0,-0.002,0.0,0.0,0.0,0.041,0.0,0.0,50.128,45.37,0.151,1260.812
5.313,1.134,2029.908,0.0,48.596,11.965,0.0,0.0,0.0,0.116,0.993,0.0,0.0,0.041,-2318.193,7041.229,0.0,-0.481,-0.0,0.0,0.0,0.0,-0.053,0.0,0.0,0.0,0.0,0.377,0.029,12.969,0.0,-0.099,1.159,0.0,0.0,0.0,0.0,0.0,0.0,-0.033,0.0,0.0,-0.002,0.0,0.0,0.0,0.041,0.0,0.0,50.075,45.321,0.151,1258.096
5.329,1.94,2030.107,0.0,48.537,11.981,0.0,0.0,0.0,0.116,0.993,0.0,0.0,0.04,-2317.578,7024.984,0.0,-0.481,-0.0,0.0,0.0,0.0,-0.053,0.0,0.0,0.0,0.0,0.377,0.029,12.969,0.0,-0.099,1.156,0.0,0.0,0.0,0.0,0.0,0.0,-0.033,0.0,0.0,-0.002,0.0,0.0,0.0,0.04,0.0,0.0,50.021,45.272,0.15,1255.376
5.346,2.75,2030.307,0.0,48.478,11.998,0.0,0.0,0.0,0.117,0.993,0.0,0.0,0.04,-2316.55,7007.501,0.0,-0.481,-0.0,0.0,0.0,0.0,-0.053,0.0,0.0,0.0,0.0,0.377,0.029,12.968,0.0,-0.099,1.154,0.0,0.0,0.0,0.0,0.0,0.0,-0.033,0.0,0.0,-0.002,0.0,0.0,0.0,0.04,0.0,0.0,49.967,45.223,0.15,1252.656
5.363,3.559,2030.507,0.0,48.418,12.014,0.0,0.0,0.0,0.117,0.993,0.0,0.0,0.04,-2315.536,6990.291,0.0,-0.481,-0.0,0.0,0.0,0.0,-0.053,0.0,0.0,0.0,0.0,0.376,0.029,12.968,0.0,-0.099,1.151,0.0,0.0,0.0,0.0,0.0,0.0,-0.033,0.0,0.0,-0.002,0.0,0.0,0.0,0.04,0.0,0.0,49.913,45.174,0.15,1249.931
5.379,4.362,2030.707,0.0,48.359,12.029,0.0,0.0,0.0,0.117,0.993,0.0,0.0,0.04,-2315.322,6976.312,0.0,-0.481,-0.0,0.0,0.0,0.0,-0.053,0.0,0.0,0.0,0.0,0.377,0.029,12.971,0.0,-0.098,1.149,0.0,0.0,0.0,0.0,0.0,0.0,-0.033,0.0,0.0,-0.002,0.0,0.0,0.0,0.04,0.0,0.0,49.86,45.125,0.15,1247.212
5.396,5.174,2030.909,0.0,48.299,12.044,0.0,0.0,0.0,0.118,0.993,0.0,0.0,0.04,-2314.66,6960.872,0.0,-0.481,-0.0,0.0,0.0,0.0,-0.053,0.0,0.0,0.0,0.0,0.377,0.029,12.972,0.0,-0.098,1.147,0.0,0.0,0.0,0.0,0.0,0.0,-0.033,0.0,0.0,-0.002,0.0,0.0,0.0,0.04,0.0,0.0,49.806,45.076,0.15,1244.487
5.413,5.98,2031.11,0.0,48.24,12.059,0.0,0.0,0.0,0.118,0.993,0.0,0.0,0.039,-2314.546,6947.596,0.0,-0.476,-0.0,0.0,0.0,0.0,-0.053,0.0,0.0,0.0,0.0,0.377,0.029,12.976,0.0,-0.098,1.145,0.0,0.0,0.0,0.0,0.0,0.0,-0.033,0.0,0.0,-0.002,0.0,0.0,0.0,0.04,0.0,0.0,49.751,45.026,0.15,1241.753
5.429,6.776,2031.31,0.0,48.181,12.073,0.0,0.0,0.0,0.118,0.993,0.0,0.0,0.039,-2313.985,6933.069,0.0,-0.476,-0.0,0.0,0.0,0.0,-0.053,0.0,0.0,0.0,0.0,0.377,0.029,12.979,0.0,-0.098,1.142,0.0,0.0,0.0,0.0,0.0,0.0,-0.033,0.0,0.0,-0.002,0.0,0.0,0.0,0.039,0.0,0.0,49.698,44.977,0.15,1239.04
5.446,7.58,2031.511,0.0,48.122,12.087,0.0,0.0,0.0,0.119,0.993,0.0,0.0,0.039,-2313.748,6919.902,0.0,-0.476,-0.0,0.0,0.0,0.0,-0.053,0.0,0.0,0.0,0.0,0.377,0.029,12.983,0.0,-0.097,1.14,0.0,0.0,0.0,0.0,0.0,0.0,-0.033,0.0,0.0,-0.002,0.0,0.0,0.0,0.039,0.0,0.0,49.644,44.928,0.149,1236.332
5.463,8.378,2031.712,0.0,48.063,12.101,0.0,0.0,0.0,0.119,0.993,0.0,0.0,0.039,-2314.064,6908.887,0.0,-0.47,-0.0,0.0,0.0,0.0,-0.053,0.0,0.0,0.0,0.0,0.378,0.029,12.99,0.0,-0.097,1.139,0.0,0.0,0.0,0.0,0.0,0.0,-0.033,0.0,0.0,-0.002,0.0,0.0,0.0,0.039,0.0,0.0,49.59,44.878,0.149,1233.615
5.48,9.185,2031.916,0.0,48.003,12.114,0.0,0.0,0.0,0.119,0.993,0.0,0.0,0.039,-2313.869,6896.138,0.0,-0.47,-0.0,0.0,0.0,0.0,-0.053,0.0,0.0,0.0,0.0,0.378,0.029,12.994,0.0,-0.097,1.137,0.0,0.0,0.0,0.0,0.0,0.0,-0.033,0.0,0.0,-0.002,0.0,0.0,0.0,0.039,0.0,0.0,49.535,44.829,0.149,1230.888
5.496,9.982,2032.117,0.0,47.944,12.127,0.0,0.0,0.0,0.12,0.993,0.0,0.0,0.038,-2313.564,6883.206,0.0,-0.464,-0.0,0.0,0.0,0.0,-0.053,0.0,0.0,0.0,0.0,0.378,0.029,12.999,0.0,-0.097,1.135,0.0,0.0,0.0,0.0,0.0,0.0,-0.033,0.0,0.0,-0.002,0.0,0.0,0.0,0.038,0.0,0.0,49.481,44.779,0.149,1228.162
5.513,10.782,2032.319,0.0,47.884,12.14,0.0,0.0,0.0,0.12,0.993,0.0,0.0,0.038,-2314.226,6873.93,0.0,-0.464,-0.0,0.0,0.0,0.0,-0.053,0.0,0.0,0.0,0.0,0.378,0.029,13.008,0.0,-0.096,1.134,0.0,0.0,0.0,0.0,0.0,0.0,-0.033,0.0,0.0,-0.002,0.0,0.0,0.0,0.038,0.0,0.0,49.426,44.729,0.149,1225.442
5.53,11.581,2032.522,0.0,47.825,12.152,0.0,0.0,0.0,0.12,0.993,0.0,0.0,0.038,-2314.184,6862.276,0.0,-0.458,-0.0,0.0,0.0,0.0,-0.053,0.0,0.0,0.0,0.0,0.379,0.029,13.014,0.0,-0.096,1.132,0.0,0.0,0.0,0.0,0.0,0.0,-0.033,0.0,0.0,-0.002,0.0,0.0,0.0,0.038,0.0,0.0,49.372,44.68,0.148,1222.713
5.546,12.374,2032.724,0.0,47.766,12.165,0.0,0.0,0.0,0.12,0.993,0.0,0.0,0.038,-2314.218,6851.091,0.0,-0.458,-0.0,0.0,0.0,0.0,-0.053,0.0,0.0,0.0,0.0,0.379,0.029,13.021,0.0,-0.096,1.13,0.0,0.0,0.0,0.0,0.0,0.0,-0.033,0.0,0.0,-0.002,0.0,0.0,0.0,0.038,0.0,0.0,49.318,44.63,0.148,1219.992
5.563,13.167,2032.926,0.0,47.707,12.177,0.0,0.0,0.0,0.121,0.993,0.0,0.0,0.038,-2315.082,6842.99,0.0,-0.453,-0.0,0.0,0.0,0.0,-0.053,0.0,0.0,0.0,0.0,0.379,0.029,13.031,0.0,-0.096,1.129,0.0,0.0,0.0,0.0,0.0,0.0,-0.033,0.0,0.0,-0.002,0.0,0.0,0.0,0.038,0.0,0.0,49.263,44.58,0.148,1217.283
5.58,13.972,2033.132,0.0,47.646,12.189,0.0,0.0,0.0,0.121,0.993,0.0,0.0,0.037,-2315.33,6832.726,0.0,-0.447,-0.0,0.0,0.0,0.0,-0.053,0.0,0.0,0.0,0.0,0.38,0.029,13.039,0.0,-0.095,1.128,0.0,0.0,0.0,0.0,0.0,0.0,-0.033,0.0,0.0,-0.002,0.0,0.0,0.0,0.038,0.0,0.0,49.208,44.53,0.148,1214.55
5.596,14.758,2033.333,0.0,47.588,12.2,0.0,0.0,0.0,0.121,0.993,0.0,0.0,0.037,-2315.341,6821.832,0.0,-0.447,-0.0,0.0,0.0,0.0,-0.053,0.0,0.0,0.0,0.0,0.38,0.029,13.047,0.0,-0.095,1.126,0.0,0.0,0.0,0.0,0.0,0.0,-0.033,0.0,0.0,-0.002,0.0,0.0,0.0,0.037,0.0,0.0,49.154,44.48,0.148,1211.824
5.613,15.552,2033.537,0.0,47.528,12.211,0.0,0.0,0.0,0.122,0.993,0.0,0.0,0.037,-2316.478,6815.057,0.0,-0.441,-0.0,0.0,0.0,0.0,-0.053,0.0,0.0,0.0,0.0,0.38,0.029,13.059,0.0,-0.095,1.125,0.0,0.0,0.0,0.0,0.0,0.0,-0.033,0.0,0.0,-0.002,0.0,0.0,0.0,0.037,0.0,0.0,49.099,44.43,0.148,1209.114
5.629,16.341,2033.74,0.0,47.469,12.222,0.0,0.0,0.0,0.122,0.992,0.0,0.0,0.037,-2316.8,6805.516,0.0,-0.435,-0.0,0.0,0.0,0.0,-0.053,0.0,0.0,0.0,0.0,0.381,0.029,13.068,0.0,-0.095,1.124,0.0,0.0,0.0,0.0,0.0,0.0,-0.033,0.0,0.0,-0.002,0.0,0.0,0.0,0.037,0.0,0.0,49.044,44.38,0.148,1206.397
5.646,17.133,2033.944,0.0,47.409,12.233,0.0,0.0,0.0,0.122,0.992,0.0,0.0,0.037,-2317.942,6798.956,0.0,-0.43,-0.0,0.0,0.0,0.0,-0.053,0.0,0.0,0.0,0.0,0.381,0.029,13.08,0.0,-0.094,1.123,0.0,0.0,0.0,0.0,0.0,0.0,-0.033,0.0,0.0,-0.002,0.0,0.0,0.0,0.037,0.0,0.0,48.99,44.33,0.147,1203.679
5.663,17.924,2034.148,0.0,47.35,12.244,0.0,0.0,0.0,0.122,0.992,0.0,0.0,0.036,-2318.331,6789.813,0.0,-0.424,-0.0,0.0,0.0,0.0,-0.053,0.0,0.0,0.0,0.0,0.382,0.029,13.09,0.0,-0.094,1.122,0.0,0.0,0.0,0.0,0.0,0.0,-0.033,0.0,0.0,-0.002,0.0,0.0,0.0,0.036,0.0,0.0,48.935,44.28,0.147,1200.952
5.68,18.719,2034.354,0.0,47.29,12.254,0.0,0.0,0.0,0.123,0.992,0.0,0.0,0.036,-2318.764,6780.895,0.0,-0.418,-0.0,0.0,0.0,0.0,-0.053,0.0,0.0,0.0,0.0,0.382,0.029,13.1,0.0,-0.094,1.12,0.0,0.0,0.0,0.0,0.0,0.0,-0.033,0.0,0.0,-0.002,0.0,0.0,0.0,0.036,0.0,0.0,48.879,44.23,0.147,1198.218
5.696,19.504,2034.558,0.0,47.231,12.265,0.0,0.0,0.0,0.123,0.992,0.0,0.0,0.036,-2319.853,6774.415,0.0,-0.413,-0.0,0.0,0.0,0.0,-0.053,0.0,0.0,0.0,0.0,0.383,0.029,13.112,0.0,-0.094,1.119,0.0,0.0,0.0,0.0,0.0,0.0,-0.033,0.0,0.0,-0.002,0.0,0.0,0.0,0.036,0.0,0.0,48.824,44.18,0.147,1195.496
5.713,20.287,2034.761,0.0,47.171,12.275,0.0,0.0,0.0,0.123,0.992,0.0,0.0,0.036,-2320.488,6766.504,0.0,-0.407,-0.0,0.0,0.0,0.0,-0.053,0.0,0.0,0.0,0.0,0.383,0.029,13.123,0.0,-0.093,1.118,0.0,0.0,0.0,0.0,0.0,0.0,-0.033,0.0,0.0,-0.002,0.0,0.0,0.0,0.036,0.0,0.0,48.77,44.13,0.147,1192.791
5.731,21.136,2034.982,0.0,47.107,12.285,0.0,0.0,0.0,0.124,0.992,0.0,0.0,0.036,-2321.171,6758.432,0.0,-0.401,-0.0,0.0,0.0,0.0,-0.053,0.0,0.0,0.0,0.0,0.384,0.029,13.135,0.0,-0.093,1.117,0.0,0.0,0.0,0.0,0.0,0.0,-0.033,0.0,0.0,-0.002,0.0,0.0,0.0,0.036,0.0,0.0,48.712,44.077,0.147,1189.968
5.746,21.87,2035.174,0.0,47.051,12.294,0.0,0.0,0.0,0.124,0.992,0.0,0.0,0.035,-2321.196,6748.502,0.0,-0.401,-0.0,0.0,0.0,0.0,-0.053,0.0,0.0,0.0,0.0,0.384,0.029,13.144,0.0,-0.093,1.116,0.0,0.0,0.0,0.0,0.0,0.0,-0.033,0.0,0.0,-0.002,0.0,0.0,0.0,0.036,0.0,0.0,48.657,44.026,0.146,1187.228
5.763,22.646,2035.377,0.0,46.992,12.304,0.0,0.0,0.0,0.124,0.992,0.0,0.0,0.035,-2322.912,6744.925,0.0,-0.395,-0.0,0.0,0.0,0.0,-0.053,0.0,0.0,0.0,0.0,0.385,0.029,13.159,0.0,-0.092,1.115,0.0,0.0,0.0,0.0,0.0,0.0,-0.033,0.0,0.0,-0.002,0.0,0.0,0.0,0.035,0.0,0.0,48.604,43.978,0.146,1184.613
5.78,23.43,2035.582,0.0,46.933,12.313,0.0,0.0,0.0,0.125,0.992,0.0,0.0,0.035,-2324.447,6740.441,0.0,-0.384,-0.0,0.0,0.0,0.0,-0.053,0.0,0.0,0.0,0.0,0.386,0.029,13.175,0.0,-0.092,1.115,0.0,0.0,0.0,0.0,0.0,0.0,-0.033,0.0,0.0,-0.002,0.0,0.0,0.0,0.035,0.0,0.0,48.549,43.928,0.146,1181.906
5.796,24.214,2035.788,0.0,46.873,12.322,0.0,0.0,0.0,0.125,0.992,0.0,0.0,0.035,-2325.117,6732.976,0.0,-0.378,-0.0,0.0,0.0,0.0,-0.053,0.0,0.0,0.0,0.0,0.386,0.029,13.187,0.0,-0.092,1.114,0.0,0.0,0.0,0.0,0.0,0.0,-0.033,0.0,0.0,-0.002,0.0,0.0,0.0,0.035,0.0,0.0,48.493,43.877,0.146,1179.186
5.813,24.996,2035.994,0.0,46.813,12.331,0.0,0.0,0.0,0.125,0.992,0.0,0.0,0.035,-2325.83,6725.75,0.0,-0.372,-0.0,0.0,0.0,0.0,-0.053,0.0,0.0,0.0,0.0,0.387,0.029,13.199,0.0,-0.092,1.113,0.0,0.0,0.0,0.0,0.0,0.0,-0.033,0.0,0.0,-0.002,0.0,0.0,0.0,0.035,0.0,0.0,48.438,43.826,0.146,1176.468
5.83,25.768,2036.197,0.0,46.754,12.34,0.0,0.0,0.0,0.126,0.992,0.0,0.0,0.034,-2327.254,6721.093,0.0,-0.367,-0.0,0.0,0.0,0.0,-0.053,0.0,0.0,0.0,0.0,0.387,0.029,13.214,0.0,-0.091,1.112,0.0,0.0,0.0,0.0,0.0,0.0,-0.033,0.0,0.0,-0.002,0.0,0.0,0.0,0.034,0.0,0.0,48.382,43.776,0.146,1173.762
5.846,26.553,2036.405,0.0,46.694,12.349,0.0,0.0,0.0,0.126,0.992,0.0,0.0,0.034,-2328.176,6714.722,0.0,-0.361,-0.0,0.0,0.0,0.0,-0.053,0.0,0.0,0.0,0.0,0.388,0.029,13.227,0.0,-0.091,1.111,0.0,0.0,0.0,0.0,0.0,0.0,-0.033,0.0,0.0,-0.003,0.0,0.0,0.0,0.034,0.0,0.0,48.327,43.726,0.145,1171.05
5.863,27.342,2036.614,0.0,46.633,12.358,0.0,0.0,0.0,0.126,0.992,0.0,0.0,0.034,-2328.836,6707.42,0.0,-0.355,-0.0,0.0,0.0,0.0,-0.053,0.0,0.0,0.0,0.0,0.388,0.029,13.239,0.0,-0.091,1.11,0.0,0.0,0.0,0.0,0.0,0.0,-0.033,0.0,0.0,-0.003,0.0,0.0,0.0,0.034,0.0,0.0,48.271,43.674,0.145,1168.306
5.88,28.11,2036.818,0.0,46.574,12.366,0.0,0.0,0.0,0.126,0.992,0.0,0.0,0.034,-2330.134,6702.429,0.0,-0.35,-0.0,0.0,0.0,0.0,-0.053,0.0,0.0,0.0,0.0,0.389,0.029,13.254,0.0,-0.09,1.11,0.0,0.0,0.0,0.0,0.0,0.0,-0.033,0.0,0.0,-0.003,0.0,0.0,0.0,0.034,0.0,0.0,48.215,43.623,0.145,1165.591
5.896,28.878,2037.022,0.0,46.515,12.374,0.0,0.0,0.0,0.127,0.992,0.0,0.0,0.034,-2331.144,6696.658,0.0,-0.344,-0.0,0.0,0.0,0.0,-0.053,0.0,0.0,0.0,0.0,0.39,0.029,13.268,0.0,-0.09,1.109,0.0,0.0,0.0,0.0,0.0,0.0,-0.033,0.0,0.0,-0.003,0.0,0.0,0.0,0.034,0.0,0.0,48.16,43.573,0.145,1162.908
5.913,29.65,2037.227,0.0,46.455,12.382,0.0,0.0,0.0,0.127,0.992,0.0,0.0,0.033,-2332.835,6693.184,0.0,-0.332,-0.0,0.0,0.0,0.0,-0.053,0.0,0.0,0.0,0.0,0.39,0.029,13.285,0.0,-0.09,1.108,0.0,0.0,0.0,0.0,0.0,0.0,-0.033,0.0,0.0,-0.003,0.0,0.0,0.0,0.034,0.0,0.0,48.105,43.523,0.145,1160.215
5.93,30.43,2037.435,0.0,46.395,12.39,0.0,0.0,0.0,0.127,0.992,0.0,0.0,0.033,-2333.705,6686.912,0.0,-0.327,-0.0,0.0,0.0,0.0,-0.053,0.0,0.0,0.0,0.0,0.391,0.029,13.298,0.0,-0.09,1.108,0.0,0.0,0.0,0.0,0.0,0.0,-0.033,0.0,0.0,-0.003,0.0,0.0,0.0,0.033,0.0,0.0,48.049,43.472,0.145,1157.498
5.946,31.2,2037.641,0.0,46.336,12.398,0.0,0.0,0.0,0.128,0.992,0.0,0.0,0.033,-2334.399,6680.086,0.0,-0.321,-0.0,0.0,0.0,0.0,-0.053,0.0,0.0,0.0,0.0,0.392,0.029,13.311,0.0,-0.089,1.106,0.0,0.0,0.0,0.0,0.0,0.0,-0.033,0.0,0.0,-0.003,0.0,0.0,0.0,0.033,0.0,0.0,47.993,43.421,0.144,1154.784
5.963,31.973,2037.848,0.0,46.276,12.406,0.0,0.0,0.0,0.128,0.992,0.0,0.0,0.032,-2336.017,6676.476,0.0,-0.315,-0.0,0.0,0.0,0.0,-0.053,0.0,0.0,0.0,0.0,0.392,0.029,13.328,0.0,-0.089,1.106,0.0,0.0,0.0,0.0,0.0,0.0,-0.033,0.0,0.0,-0.003,0.0,0.0,0.0,0.033,0.0,0.0,47.938,43.37,0.144,1152.078
5.98,32.741,2038.054,0.0,46.216,12.413,0.0,0.0,0.0,0.128,0.992,0.0,0.0,0.032,-2336.819,6670.131,0.0,-0.309,-0.0,0.0,0.0,0.0,-0.053,0.0,0.0,0.0,0.0,0.393,0.03,13.342,0.0,-0.089,1.105,0.0,0.0,0.0,0.0,0.0,0.0,-0.033,0.0,0.0,-0.003,0.0,0.0,0.0,0.032,0.0,0.0,47.882,43.319,0.144,1149.374
5.996,33.512,2038.262,0.0,46.156,12.421,0.0,0.0,0.0,0.128,0.992,0.0,0.0,0.032,-2337.721,6664.18,0.0,-0.304,-0.0,0.0,0.0,0.0,-0.053,0.0,0.0,0.0,0.0,0.394,0.03,13.356,0.0,-0.089,1.104,0.0,0.0,0.0,0.0,0.0,0.0,-0.033,0.0,0.0,-0.003,0.0,0.0,0.0,0.032,0.0,0.0,47.826,43.268,0.144,1146.669
6.013,34.292,2038.472,0.0,46.095,12.428,0.0,0.0,0.0,0.129,0.992,0.0,0.0,0.032,-2339.285,6660.463,0.0,-0.292,-0.0,0.0,0.0,0.0,-0.053,0.0,0.0,0.0,0.0,0.394,0.03,13.373,0.0,-0.088,1.104,0.0,0.0,0.0,0.0,0.0,0.0,-0.033,0.0,0.0,-0.003,0.0,0.0,0.0,0.032,0.0,0.0,47.769,43.216,0.144,1143.938
6.03,35.047,2038.675,0.0,46.036,12.435,0.0,0.0,0.0,0.129,0.992,0.0,0.0,0.031,-2339.983,6653.968,0.0,-0.286,-0.0,0.0,0.0,0.0,-0.053,0.0,0.0,0.0,0.0,0.395,0.03,13.386,0.0,-0.088,1.103,0.0,0.0,0.0,0.0,0.0,0.0,-0.033,0.0,0.0,-0.003,0.0,0.0,0.0,0.031,0.0,0.0,47.713,43.165,0.144,1141.235
6.046,35.815,2038.883,0.0,45.976,12.442,0.0,0.0,0.0,0.129,0.992,0.0,0.0,0.031,-2341.82,6651.336,0.0,-0.275,-0.0,0.0,0.0,0.0,-0.053,0.0,0.0,0.0,0.0,0.396,0.03,13.404,0.0,-0.088,1.103,0.0,0.0,0.0,0.0,0.0,0.0,-0.033,0.0,0.0,-0.003,0.0,0.0,0.0,0.031,0.0,0.0,47.658,43.114,0.143,1138.551
6.071,36.936,2039.187,0.0,45.888,12.452,0.0,0.0,0.0,0.13,0.992,0.0,0.0,0.03,-2341.876,6637.532,0.0,-0.269,-0.0,0.0,0.0,0.0,-0.053,0.0,0.0,0.0,0.0,0.397,0.03,13.421,0.0,-0.087,1.101,0.0,0.0,0.0,0.0,0.0,0.0,-0.033,0.0,0.0,-0.003,0.0,0.0,0.0,0.031,0.0,0.0,47.568,43.032,0.143,1134.226
6.096,38.1,2039.503,0.0,45.796,12.462,0.0,0.0,0.0,0.13,0.992,0.0,0.0,0.03,-2341.698,6623.973,0.0,-0.264,-0.0,0.0,0.0,0.0,-0.053,0.0,0.0,0.0,0.0,0.397,0.03,13.436,0.0,-0.087,1.099,0.0,0.0,0.0,0.0,0.0,0.0,-0.033,0.0,0.0,-0.003,0.0,0.0,0.0,0.03,0.0,0.0,47.483,42.955,0.143,1130.149
6.114,38.91,2039.724,0.0,45.733,12.469,0.0,0.0,0.0,0.13,0.992,0.0,0.0,0.03,-2341.029,6614.063,0.0,-0.258,-0.0,0.0,0.0,0.0,-0.053,0.0,0.0,0.0,0.0,0.398,0.03,13.444,0.0,-0.087,1.097,0.0,0.0,0.0,0.0,0.0,0.0,-0.033,0.0,0.0,-0.003,0.0,0.0,0.0,0.03,0.0,0.0,47.432,42.908,0.143,1127.688
6.13,39.642,2039.923,0.0,45.675,12.475,0.0,0.0,0.0,0.131,0.991,0.0,0.0,0.03,-2341.322,6606.66,0.0,-0.252,-0.0,0.0,0.0,0.0,-0.053,0.0,0.0,0.0,0.0,0.398,0.03,13.456,0.0,-0.086,1.096,0.0,0.0,0.0,0.0,0.0,0.0,-0.033,0.0,0.0,-0.003,0.0,0.0,0.0,0.03,0.0,0.0,47.375,42.856,0.142,1124.96
6.146,40.4,2040.13,0.0,45.615,12.48,0.0,0.0,0.0,0.131,0.991,0.0,0.0,0.029,-2338.368,6588.934,0.0,-0.252,-0.0,0.0,0.0,0.0,-0.053,0.0,0.0,0.0,0.0,0.398,0.03,13.454,0.0,-0.086,1.093,0.0,0.0,0.0,0.0,0.0,0.0,-0.033,0.0,0.0,-0.003,0.0,0.0,0.0,0.029,0.0,0.0,47.32,42.806,0.142,1122.322
6.163,41.156,2040.338,0.0,45.556,12.485,0.0,0.0,0.0,0.131,0.991,0.0,0.0,0.029,-2334.341,6567.778,0.0,-0.258,-0.0,0.0,0.0,0.0,-0.053,0.0,0.0,0.0,0.0,0.398,0.03,13.449,0.0,-0.086,1.09,0.0,0.0,0.0,0.0,0.0,0.0,-0.033,0.0,0.0,-0.003,0.0,0.0,0.0,0.029,0.0,0.0,47.264,42.755,0.142,1119.636
6.18,41.921,2040.548,0.0,45.496,12.49,0.0,0.0,0.0,0.131,0.991,0.0,0.0,0.029,-2330.538,6547.657,0.0,-0.258,-0.0,0.0,0.0,0.0,-0.053,0.0,0.0,0.0,0.0,0.398,0.03,13.444,0.0,-0.086,1.087,0.0,0.0,0.0,0.0,0.0,0.0,-0.033,0.0,0.0,-0.003,0.0,0.0,0.0,0.029,0.0,0.0,47.207,42.703,0.142,1116.935
6.196,42.68,2040.756,0.0,45.436,12.494,0.0,0.0,0.0,0.132,0.991,0.0,0.0,0.028,-2327.47,6530.184,0.0,-0.258,-0.0,0.0,0.0,0.0,-0.053,0.0,0.0,0.0,0.0,0.398,0.03,13.444,0.0,-0.086,1.084,0.0,0.0,0.0,0.0,0.0,0.0,-0.033,0.0,0.0,-0.003,0.0,0.0,0.0,0.028,0.0,0.0,47.15,42.652,0.142,1114.23
6.213,43.43,2040.962,0.0,45.377,12.497,0.0,0.0,0.0,0.132,0.991,0.0,0.0,0.028,-2323.947,6511.552,0.0,-0.258,-0.0,0.0,0.0,0.0,-0.053,0.0,0.0,0.0,0.0,0.398,0.03,13.441,0.0,-0.085,1.081,0.0,0.0,0.0,0.0,0.0,0.0,-0.033,0.0,0.0,-0.003,0.0,0.0,0.0,0.028,0.0,0.0,47.094,42.6,0.142,1111.548
6.23,44.187,2041.171,0.0,45.317,12.5,0.0,0.0,0.0,0.132,0.991,0.0,0.0,0.028,-2320.794,6494.386,0.0,-0.258,-0.0,0.0,0.0,0.0,-0.053,0.0,0.0,0.0,0.0,0.398,0.03,13.44,0.0,-0.085,1.079,0.0,0.0,0.0,0.0,0.0,0.0,-0.033,0.0,0.0,-0.003,0.0,0.0,0.0,0.028,0.0,0.0,47.038,42.549,0.142,1108.868
6.246,44.948,2041.381,0.0,45.257,12.503,0.0,0.0,0.0,0.132,0.991,0.0,0.0,0.028,-2317.653,6477.446,0.0,-0.258,-0.0,0.0,0.0,0.0,-0.053,0.0,0.0,0.0,0.0,0.398,0.03,13.44,0.0,-0.085,1.076,0.0,0.0,0.0,0.0,0.0,0.0,-0.033,0.0,0.0,-0.003,0.0,0.0,0.0,0.028,0.0,0.0,46.981,42.497,0.141,1106.168
6.263,45.703,2041.59,0.0,45.198,12.505,0.0,0.0,0.0,0.132,0.991,0.0,0.0,0.028,-2315.305,6463.317,0.0,-0.258,-0.0,0.0,0.0,0.0,-0.053,0.0,0.0,0.0,0.0,0.398,0.03,13.444,0.0,-0.085,1.074,0.0,0.0,0.0,0.0,0.0,0.0,-0.033,0.0,0.0,-0.003,0.0,0.0,0.0,0.028,0.0,0.0,46.924,42.445,0.141,1103.468
6.28,46.457,2041.799,0.0,45.138,12.507,0.0,0.0,0.0,0.132,0.991,0.0,0.0,0.027,-2312.457,6447.784,0.0,-0.258,-0.0,0.0,0.0,0.0,-0.053,0.0,0.0,0.0,0.0,0.398,0.03,13.445,0.0,-0.084,1.071,0.0,0.0,0.0,0.0,0.0,0.0,-0.033,0.0,0.0,-0.003,0.0,0.0,0.0,0.027,0.0,0.0,46.867,42.393,0.141,1100.778
6.296,47.202,2042.005,0.0,45.08,12.509,0.0,0.0,0.0,0.133,0.991,0.0,0.0,0.027,-2309.769,6433.029,0.0,-0.252,-0.0,0.0,0.0,0.0,-0.053,0.0,0.0,0.0,0.0,0.398,0.03,13.447,0.0,-0.084,1.069,0.0,0.0,0.0,0.0,0.0,0.0,-0.033,0.0,0.0,-0.003,0.0,0.0,0.0,0.027,0.0,0.0,46.811,42.342,0.141,1098.106
6.313,47.967,2042.218,0.0,45.019,12.51,0.0,0.0,0.0,0.133,0.991,0.0,0.0,0.027,-2307.365,6419.347,0.0,-0.252,-0.0,0.0,0.0,0.0,-0.053,0.0,0.0,0.0,0.0,0.398,0.03,13.451,0.0,-0.084,1.067,0.0,0.0,0.0,0.0,0.0,0.0,-0.033,0.0,0.0,-0.003,0.0,0.0,0.0,0.027,0.0,0.0,46.754,42.29,0.141,1095.414
6.33,48.701,2042.422,0.0,44.962,12.511,0.0,0.0,0.0,0.133,0.991,0.0,0.0,0.027,-2305.446,6407.45,0.0,-0.252,-0.0,0.0,0.0,0.0,-0.053,0.0,0.0,0.0,0.0,0.398,0.03,13.457,0.0,-0.084,1.065,0.0,0.0,0.0,0.0,0.0,0.0,-0.033,0.0,0.0,-0.003,0.0,0.0,0.0,0.027,0.0,0.0,46.697,42.238,0.14,1092.74
6.346,49.446,2042.629,0.0,44.903,12.511,0.0,0.0,0.0,0.133,0.991,0.0,0.0,0.026,-2303.447,6395.542,0.0,-0.246,-0.0,0.0,0.0,0.0,-0.053,0.0,0.0,0.0,0.0,0.399,0.03,13.463,0.0,-0.084,1.063,0.0,0.0,0.0,0.0,0.0,0.0,-0.033,0.0,0.0,-0.003,0.0,0.0,0.0,0.027,0.0,0.0,46.641,42.187,0.14,1090.098
6.363,50.196,2042.838,0.0,44.844,12.511,0.0,0.0,0.0,0.134,0.991,0.0,0.0,0.026,-2301.336,6383.371,0.0,-0.241,-0.0,0.0,0.0,0.0,-0.053,0.0,0.0,0.0,0.0,0.399,0.03,13.469,0.0,-0.083,1.061,0.0,0.0,0.0,0.0,0.0,0.0,-0.033,0.0,0.0,-0.003,0.0,0.0,0.0,0.026,0.0,0.0,46.585,42.135,0.14,1087.427
6.38,50.944,2043.047,0.0,44.785,12.511,0.0,0.0,0.0,0.134,0.991,0.0,0.0,0.026,-2299.976,6373.763,0.0,-0.241,-0.0,0.0,0.0,0.0,-0.053,0.0,0.0,0.0,0.0,0.399,0.03,13.478,0.0,-0.083,1.06,0.0,0.0,0.0,0.0,0.0,0.0,-0.033,0.0,0.0,-0.003,0.0,0.0,0.0,0.026,0.0,0.0,46.528,42.084,0.14,1084.75
6.397,51.71,2043.261,0.0,44.724,12.511,0.0,0.0,0.0,0.134,0.991,0.0,0.0,0.026,-2297.943,6362.022,0.0,-0.235,-0.0,0.0,0.0,0.0,-0.053,0.0,0.0,0.0,0.0,0.4,0.03,13.485,0.0,-0.083,1.058,0.0,0.0,0.0,0.0,0.0,0.0,-0.033,0.0,0.0,-0.003,0.0,0.0,0.0,0.026,0.0,0.0,46.47,42.031,0.14,1082.042
6.413,52.434,2043.464,0.0,44.667,12.51,0.0,0.0,0.0,0.134,0.991,0.0,0.0,0.026,-2295.741,6349.958,0.0,-0.235,-0.0,0.0,0.0,0.0,-0.053,0.0,0.0,0.0,0.0,0.4,0.03,13.491,0.0,-0.083,1.056,0.0,0.0,0.0,0.0,0.0,0.0,-0.033,0.0,0.0,-0.003,0.0,0.0,0.0,0.026,0.0,0.0,46.413,41.979,0.14,1079.375
6.43,53.184,2043.674,0.0,44.608,12.51,0.0,0.0,0.0,0.134,0.991,0.0,0.0,0.026,-2294.296,6340.545,0.0,-0.229,-0.0,0.0,0.0,0.0,-0.053,0.0,0.0,0.0,0.0,0.4,0.03,13.5,0.0,-0.082,1.055,0.0,0.0,0.0,0.0,0.0,0.0,-0.033,0.0,0.0,-0.003,0.0,0.0,0.0,0.026,0.0,0.0,46.357,41.928,0.14,1076.736
6.446,53.924,2043.882,0.0,44.549,12.508,0.0,0.0,0.0,0.134,0.991,0.0,0.0,0.025,-2293.239,6332.446,0.0,-0.223,-0.0,0.0,0.0,0.0,-0.053,0.0,0.0,0.0,0.0,0.401,0.03,13.511,0.0,-0.082,1.053,0.0,0.0,0.0,0.0,0.0,0.0,-0.033,0.0,0.0,-0.003,0.0,0.0,0.0,0.025,0.0,0.0,46.3,41.876,0.139,1074.067
6.463,54.663,2044.089,0.0,44.49,12.507,0.0,0.0,0.0,0.135,0.991,0.0,0.0,0.025,-2291.661,6322.808,0.0,-0.218,-0.0,0.0,0.0,0.0,-0.053,0.0,0.0,0.0,0.0,0.401,0.03,13.52,0.0,-0.082,1.052,0.0,0.0,0.0,0.0,0.0,0.0,-0.033,0.0,0.0,-0.003,0.0,0.0,0.0,0.025,0.0,0.0,46.243,41.824,0.139,1071.414
6.48,55.405,2044.298,0.0,44.432,12.506,0.0,0.0,0.0,0.135,0.991,0.0,0.0,0.025,-2290.158,6313.495,0.0,-0.212,-0.0,0.0,0.0,0.0,-0.053,0.0,0.0,0.0,0.0,0.402,0.03,13.53,0.0,-0.082,1.05,0.0,0.0,0.0,0.0,0.0,0.0,-0.033,0.0,0.0,-0.003,0.0,0.0,0.0,0.025,0.0,0.0,46.186,41.772,0.139,1068.759
6.496,56.151,2044.508,0.0,44.372,12.504,0.0,0.0,0.0,0.135,0.991,0.0,0.0,0.025,-2288.684,6304.394,0.0,-0.206,-0.0,0.0,0.0,0.0,-0.053,0.0,0.0,0.0,0.0,0.402,0.03,13.54,0.0,-0.081,1.049,0.0,0.0,0.0,0.0,0.0,0.0,-0.033,0.0,0.0,-0.003,0.0,0.0,0.0,0.025,0.0,0.0,46.129,41.72,0.139,1066.09
