time,LATITUDE_m,ALTITUDE_m,LONGITUDE_m,vx,VSI_ms,vz,qx,qy,qz,qw,wx,wy,wz,fx_global,fy_global,fz_global,alpha_DEG,beta_DEG,pitch_demand,roll_demand,yaw_demand,pitch_demand_attained,roll_demand_attained,yaw_demand_attained,thrust_setting_demand,thrust_attained,CL,CD,CL_CD_ratio,CS,nx,nz,ny,CM_roll_from_aero_forces,CM_yaw_from_aero_forces,CM_pitch_from_aero_forces,CM_roll_from_control,CM_yaw_from_control,CM_pitch_from_control,CM_roll_from_aero_stiffness,CM_yaw_from_aero_stiffness,CM_pitch_from_aero_stiffness,CM_roll_from_aero_damping,CM_yaw_from_aero_damping,CM_pitch_from_aero_damping,q_pitch_rate,p_roll_rate,r_yaw_rate,TAS,EAS,Mach,dynamic_pressure
3.011,-77.239,2014.291,0.0,53.515,9.412,0.0,0.0,0.0,0.081,0.997,0.0,0.0,0.058,-2073.674,7998.568,0.0,-0.705,-0.0,0.0,0.0,0.0,-0.053,0.0,0.0,0.0,0.0,0.356,0.028,12.465,0.0,-0.12,1.291,0.0,0.0,0.0,0.0,0.0,0.0,-0.033,0.0,0.0,-0.002,0.0,0.0,0.0,0.058,0.0,0.0,54.359,49.238,0.164,1484.93
3.027,-76.356,2014.446,0.0,53.462,9.453,0.0,0.0,0.0,0.081,0.997,0.0,0.0,0.058,-2079.534,7993.048,0.0,-0.705,-0.0,0.0,0.0,0.0,-0.053,0.0,0.0,0.0,0.0,0.356,0.028,12.476,0.0,-0.119,1.29,0.0,0.0,0.0,0.0,0.0,0.0,-0.033,0.0,0.0,-0.002,0.0,0.0,0.0,0.058,0.0,0.0,54.314,49.197,0.163,1482.438
3.044,-75.469,2014.604,0.0,53.409,9.494,0.0,0.0,0.0,0.082,0.997,0.0,0.0,0.058,-2085.385,7987.758,0.0,-0.699,-0.0,0.0,0.0,0.0,-0.053,0.0,0.0,0.0,0.0,0.356,0.028,12.487,0.0,-0.119,1.29,0.0,0.0,0.0,0.0,0.0,0.0,-0.033,0.0,0.0,-0.002,0.0,0.0,0.0,0.058,0.0,0.0,54.269,49.155,0.163,1479.956
3.061,-74.578,2014.763,0.0,53.355,9.535,0.0,0.0,0.0,0.082,0.997,0.0,0.0,0.057,-2091.106,7981.7,0.0,-0.693,-0.0,0.0,0.0,0.0,-0.053,0.0,0.0,0.0,0.0,0.357,0.029,12.497,0.0,-0.119,1.289,0.0,0.0,0.0,0.0,0.0,0.0,-0.033,0.0,0.0,-0.002,0.0,0.0,0.0,0.058,0.0,0.0,54.224,49.114,0.163,1477.453
3.077,-73.687,2014.922,0.0,53.302,9.576,0.0,0.0,0.0,0.083,0.997,0.0,0.0,0.057,-2097.102,7976.955,0.0,-0.688,-0.0,0.0,0.0,0.0,-0.053,0.0,0.0,0.0,0.0,0.357,0.029,12.509,0.0,-0.119,1.288,0.0,0.0,0.0,0.0,0.0,0.0,-0.033,0.0,0.0,-0.002,0.0,0.0,0.0,0.057,0.0,0.0,54.178,49.072,0.163,1474.941
3.094,-72.803,2015.082,0.0,53.248,9.617,0.0,0.0,0.0,0.083,0.996,0.0,0.0,0.057,-2102.646,7970.147,0.0,-0.688,-0.0,0.0,0.0,0.0,-0.053,0.0,0.0,0.0,0.0,0.358,0.029,12.518,0.0,-0.118,1.288,0.0,0.0,0.0,0.0,0.0,0.0,-0.033,0.0,0.0,-0.002,0.0,0.0,0.0,0.057,0.0,0.0,54.132,49.03,0.163,1472.429
3.111,-71.914,2015.242,0.0,53.194,9.658,0.0,0.0,0.0,0.084,0.996,0.0,0.0,0.057,-2108.737,7966.06,0.0,-0.682,-0.0,0.0,0.0,0.0,-0.053,0.0,0.0,0.0,0.0,0.358,0.029,12.531,0.0,-0.118,1.287,0.0,0.0,0.0,0.0,0.0,0.0,-0.033,0.0,0.0,-0.002,0.0,0.0,0.0,0.057,0.0,0.0,54.086,48.988,0.163,1469.914
3.127,-71.021,2015.405,0.0,53.139,9.699,0.0,0.0,0.0,0.084,0.996,0.0,0.0,0.057,-2114.283,7959.213,0.0,-0.676,-0.0,0.0,0.0,0.0,-0.053,0.0,0.0,0.0,0.0,0.359,0.029,12.54,0.0,-0.118,1.287,0.0,0.0,0.0,0.0,0.0,0.0,-0.033,0.0,0.0,-0.002,0.0,0.0,0.0,0.057,0.0,0.0,54.04,48.946,0.162,1467.378
3.144,-70.139,2015.566,0.0,53.085,9.739,0.0,0.0,0.0,0.085,0.996,0.0,0.0,0.056,-2120.091,7953.792,0.0,-0.67,-0.0,0.0,0.0,0.0,-0.053,0.0,0.0,0.0,0.0,0.359,0.029,12.552,0.0,-0.118,1.286,0.0,0.0,0.0,0.0,0.0,0.0,-0.033,0.0,0.0,-0.002,0.0,0.0,0.0,0.056,0.0,0.0,53.994,48.904,0.162,1464.848
3.161,-69.258,2015.728,0.0,53.031,9.78,0.0,0.0,0.0,0.085,0.996,0.0,0.0,0.056,-2125.742,7947.938,0.0,-0.665,-0.0,0.0,0.0,0.0,-0.053,0.0,0.0,0.0,0.0,0.36,0.029,12.562,0.0,-0.117,1.285,0.0,0.0,0.0,0.0,0.0,0.0,-0.033,0.0,0.0,-0.002,0.0,0.0,0.0,0.056,0.0,0.0,53.948,48.862,0.162,1462.328
3.177,-68.368,2015.893,0.0,52.976,9.82,0.0,0.0,0.0,0.086,0.996,0.0,0.0,0.056,-2131.382,7941.868,0.0,-0.659,-0.0,0.0,0.0,0.0,-0.053,0.0,0.0,0.0,0.0,0.36,0.029,12.573,0.0,-0.117,1.285,0.0,0.0,0.0,0.0,0.0,0.0,-0.033,0.0,0.0,-0.002,0.0,0.0,0.0,0.056,0.0,0.0,53.901,48.819,0.162,1459.786
3.194,-67.489,2016.056,0.0,52.921,9.86,0.0,0.0,0.0,0.086,0.996,0.0,0.0,0.056,-2137.169,7936.588,0.0,-0.659,-0.0,0.0,0.0,0.0,-0.053,0.0,0.0,0.0,0.0,0.36,0.029,12.584,0.0,-0.117,1.284,0.0,0.0,0.0,0.0,0.0,0.0,-0.033,0.0,0.0,-0.002,0.0,0.0,0.0,0.056,0.0,0.0,53.855,48.777,0.162,1457.239
3.211,-66.611,2016.22,0.0,52.866,9.9,0.0,0.0,0.0,0.087,0.996,0.0,0.0,0.056,-2142.76,7930.623,0.0,-0.653,-0.0,0.0,0.0,0.0,-0.053,0.0,0.0,0.0,0.0,0.361,0.029,12.595,0.0,-0.117,1.284,0.0,0.0,0.0,0.0,0.0,0.0,-0.033,0.0,0.0,-0.002,0.0,0.0,0.0,0.056,0.0,0.0,53.808,48.734,0.162,1454.702
3.227,-65.734,2016.385,0.0,52.811,9.939,0.0,0.0,0.0,0.087,0.996,0.0,0.0,0.055,-2148.801,7926.858,0.0,-0.647,-0.0,0.0,0.0,0.0,-0.053,0.0,0.0,0.0,0.0,0.361,0.029,12.608,0.0,-0.116,1.283,0.0,0.0,0.0,0.0,0.0,0.0,-0.033,0.0,0.0,-0.002,0.0,0.0,0.0,0.056,0.0,0.0,53.762,48.692,0.162,1452.162
3.244,-64.847,2016.552,0.0,52.756,9.979,0.0,0.0,0.0,0.088,0.996,0.0,0.0,0.055,-2154.389,7920.818,0.0,-0.642,-0.0,0.0,0.0,0.0,-0.053,0.0,0.0,0.0,0.0,0.362,0.029,12.619,0.0,-0.116,1.282,0.0,0.0,0.0,0.0,0.0,0.0,-0.033,0.0,0.0,-0.002,0.0,0.0,0.0,0.055,0.0,0.0,53.715,48.649,0.162,1449.601
3.261,-63.966,2016.719,0.0,52.7,10.019,0.0,0.0,0.0,0.088,0.996,0.0,0.0,0.055,-2160.12,7915.354,0.0,-0.636,-0.0,0.0,0.0,0.0,-0.053,0.0,0.0,0.0,0.0,0.362,0.029,12.631,0.0,-0.116,1.282,0.0,0.0,0.0,0.0,0.0,0.0,-0.033,0.0,0.0,-0.002,0.0,0.0,0.0,0.055,0.0,0.0,53.668,48.606,0.161,1447.028
3.277,-63.087,2016.887,0.0,52.644,10.058,0.0,0.0,0.0,0.089,0.996,0.0,0.0,0.055,-2165.525,7908.566,0.0,-0.63,-0.0,0.0,0.0,0.0,-0.053,0.0,0.0,0.0,0.0,0.363,0.029,12.641,0.0,-0.116,1.281,0.0,0.0,0.0,0.0,0.0,0.0,-0.033,0.0,0.0,-0.002,0.0,0.0,0.0,0.055,0.0,0.0,53.62,48.562,0.161,1444.459
3.294,-62.208,2017.055,0.0,52.589,10.097,0.0,0.0,0.0,0.089,0.996,0.0,0.0,0.054,-2170.899,7901.744,0.0,-0.63,-0.0,0.0,0.0,0.0,-0.053,0.0,0.0,0.0,0.0,0.363,0.029,12.651,0.0,-0.115,1.28,0.0,0.0,0.0,0.0,0.0,0.0,-0.033,0.0,0.0,-0.002,0.0,0.0,0.0,0.055,0.0,0.0,53.573,48.519,0.161,1441.887
3.311,-61.336,2017.223,0.0,52.533,10.136,0.0,0.0,0.0,0.09,0.996,0.0,0.0,0.054,-2171.588,7873.813,0.0,-0.636,-0.0,0.0,0.0,0.0,-0.053,0.0,0.0,0.0,0.0,0.363,0.029,12.638,0.0,-0.115,1.276,0.0,0.0,0.0,0.0,0.0,0.0,-0.033,0.0,0.0,-0.002,0.0,0.0,0.0,0.054,0.0,0.0,53.526,48.476,0.161,1439.315
3.327,-60.464,2017.392,0.0,52.478,10.173,0.0,0.0,0.0,0.09,0.996,0.0,0.0,0.054,-2172.131,7845.935,0.0,-0.636,-0.0,0.0,0.0,0.0,-0.053,0.0,0.0,0.0,0.0,0.362,0.029,12.625,0.0,-0.115,1.272,0.0,0.0,0.0,0.0,0.0,0.0,-0.033,0.0,0.0,-0.002,0.0,0.0,0.0,0.054,0.0,0.0,53.478,48.432,0.161,1436.748
3.344,-59.588,2017.562,0.0,52.422,10.21,0.0,0.0,0.0,0.09,0.996,0.0,0.0,0.054,-2173.309,7821.481,0.0,-0.642,-0.0,0.0,0.0,0.0,-0.053,0.0,0.0,0.0,0.0,0.362,0.029,12.616,0.0,-0.115,1.268,0.0,0.0,0.0,0.0,0.0,0.0,-0.033,0.0,0.0,-0.002,0.0,0.0,0.0,0.054,0.0,0.0,53.431,48.389,0.161,1434.169
3.361,-58.718,2017.732,0.0,52.366,10.247,0.0,0.0,0.0,0.091,0.996,0.0,0.0,0.054,-2179.186,7818.714,0.0,-0.636,-0.0,0.0,0.0,0.0,-0.053,0.0,0.0,0.0,0.0,0.362,0.029,12.63,0.0,-0.115,1.268,0.0,0.0,0.0,0.0,0.0,0.0,-0.033,0.0,0.0,-0.002,0.0,0.0,0.0,0.054,0.0,0.0,53.383,48.346,0.161,1431.591
3.377,-57.844,2017.903,0.0,52.31,10.284,0.0,0.0,0.0,0.091,0.996,0.0,0.0,0.053,-2179.987,7793.21,0.0,-0.642,-0.0,0.0,0.0,0.0,-0.053,0.0,0.0,0.0,0.0,0.362,0.029,12.62,0.0,-0.114,1.264,0.0,0.0,0.0,0.0,0.0,0.0,-0.033,0.0,0.0,-0.002,0.0,0.0,0.0,0.054,0.0,0.0,53.336,48.302,0.16,1429.004
3.394,-56.971,2018.075,0.0,52.254,10.32,0.0,0.0,0.0,0.092,0.996,0.0,0.0,0.053,-2181.278,7770.372,0.0,-0.642,-0.0,0.0,0.0,0.0,-0.053,0.0,0.0,0.0,0.0,0.362,0.029,12.612,0.0,-0.114,1.261,0.0,0.0,0.0,0.0,0.0,0.0,-0.033,0.0,0.0,-0.002,0.0,0.0,0.0,0.053,0.0,0.0,53.288,48.258,0.16,1426.41
3.411,-56.099,2018.248,0.0,52.198,10.355,0.0,0.0,0.0,0.092,0.996,0.0,0.0,0.053,-2182.233,7746.562,0.0,-0.647,-0.0,0.0,0.0,0.0,-0.053,0.0,0.0,0.0,0.0,0.361,0.029,12.604,0.0,-0.114,1.257,0.0,0.0,0.0,0.0,0.0,0.0,-0.033,0.0,0.0,-0.002,0.0,0.0,0.0,0.053,0.0,0.0,53.239,48.214,0.16,1423.814
3.427,-55.238,2018.419,0.0,52.143,10.389,0.0,0.0,0.0,0.092,0.996,0.0,0.0,0.053,-2183.771,7726.012,0.0,-0.647,-0.0,0.0,0.0,0.0,-0.053,0.0,0.0,0.0,0.0,0.361,0.029,12.598,0.0,-0.114,1.254,0.0,0.0,0.0,0.0,0.0,0.0,-0.033,0.0,0.0,-0.002,0.0,0.0,0.0,0.053,0.0,0.0,53.192,48.17,0.16,1421.226
3.444,-54.363,2018.594,0.0,52.086,10.424,0.0,0.0,0.0,0.093,0.996,0.0,0.0,0.053,-2185.257,7705.639,0.0,-0.653,-0.0,0.0,0.0,0.0,-0.053,0.0,0.0,0.0,0.0,0.361,0.029,12.593,0.0,-0.114,1.251,0.0,0.0,0.0,0.0,0.0,0.0,-0.033,0.0,0.0,-0.002,0.0,0.0,0.0,0.053,0.0,0.0,53.143,48.126,0.16,1418.63
3.461,-53.498,2018.767,0.0,52.03,10.457,0.0,0.0,0.0,0.093,0.996,0.0,0.0,0.052,-2186.443,7684.3,0.0,-0.653,-0.0,0.0,0.0,0.0,-0.053,0.0,0.0,0.0,0.0,0.36,0.029,12.587,0.0,-0.114,1.248,0.0,0.0,0.0,0.0,0.0,0.0,-0.033,0.0,0.0,-0.002,0.0,0.0,0.0,0.052,0.0,0.0,53.095,48.082,0.16,1416.021
3.477,-52.63,2018.942,0.0,51.974,10.49,0.0,0.0,0.0,0.094,0.996,0.0,0.0,0.052,-2188.496,7667.259,0.0,-0.653,-0.0,0.0,0.0,0.0,-0.053,0.0,0.0,0.0,0.0,0.36,0.029,12.586,0.0,-0.113,1.246,0.0,0.0,0.0,0.0,0.0,0.0,-0.033,0.0,0.0,-0.002,0.0,0.0,0.0,0.052,0.0,0.0,53.047,48.038,0.16,1413.42
3.494,-51.763,2019.117,0.0,51.918,10.523,0.0,0.0,0.0,0.094,0.996,0.0,0.0,0.052,-2190.04,7648.314,0.0,-0.653,-0.0,0.0,0.0,0.0,-0.053,0.0,0.0,0.0,0.0,0.36,0.029,12.583,0.0,-0.113,1.243,0.0,0.0,0.0,0.0,0.0,0.0,-0.033,0.0,0.0,-0.002,0.0,0.0,0.0,0.052,0.0,0.0,52.998,47.993,0.159,1410.807
3.511,-50.901,2019.292,0.0,51.862,10.555,0.0,0.0,0.0,0.094,0.996,0.0,0.0,0.052,-2191.673,7630.231,0.0,-0.659,-0.0,0.0,0.0,0.0,-0.053,0.0,0.0,0.0,0.0,0.36,0.029,12.58,0.0,-0.113,1.24,0.0,0.0,0.0,0.0,0.0,0.0,-0.033,0.0,0.0,-0.001,0.0,0.0,0.0,0.052,0.0,0.0,52.949,47.949,0.159,1408.196
3.527,-50.03,2019.47,0.0,51.805,10.587,0.0,0.0,0.0,0.095,0.996,0.0,0.0,0.052,-2194.032,7615.546,0.0,-0.653,-0.0,0.0,0.0,0.0,-0.053,0.0,0.0,0.0,0.0,0.36,0.029,12.582,0.0,-0.113,1.238,0.0,0.0,0.0,0.0,0.0,0.0,-0.033,0.0,0.0,-0.001,0.0,0.0,0.0,0.052,0.0,0.0,52.901,47.904,0.159,1405.575
3.544,-49.171,2019.646,0.0,51.749,10.619,0.0,0.0,0.0,0.095,0.995,0.0,0.0,0.052,-2195.699,7598.166,0.0,-0.653,-0.0,0.0,0.0,0.0,-0.053,0.0,0.0,0.0,0.0,0.36,0.029,12.58,0.0,-0.112,1.236,0.0,0.0,0.0,0.0,0.0,0.0,-0.033,0.0,0.0,-0.001,0.0,0.0,0.0,0.052,0.0,0.0,52.852,47.86,0.159,1402.952
3.561,-48.312,2019.822,0.0,51.693,10.65,0.0,0.0,0.0,0.096,0.995,0.0,0.0,0.051,-2198.241,7585.025,0.0,-0.653,-0.0,0.0,0.0,0.0,-0.053,0.0,0.0,0.0,0.0,0.36,0.029,12.583,0.0,-0.112,1.234,0.0,0.0,0.0,0.0,0.0,0.0,-0.033,0.0,0.0,-0.001,0.0,0.0,0.0,0.051,0.0,0.0,52.803,47.815,0.159,1400.342
3.577,-47.45,2020.0,0.0,51.636,10.68,0.0,0.0,0.0,0.096,0.995,0.0,0.0,0.051,-2200.381,7570.381,0.0,-0.653,-0.0,0.0,0.0,0.0,-0.053,0.0,0.0,0.0,0.0,0.36,0.029,12.585,0.0,-0.112,1.232,0.0,0.0,0.0,0.0,0.0,0.0,-0.033,0.0,0.0,-0.001,0.0,0.0,0.0,0.051,0.0,0.0,52.754,47.77,0.159,1397.723
3.594,-46.588,2020.179,0.0,51.58,10.711,0.0,0.0,0.0,0.096,0.995,0.0,0.0,0.051,-2202.47,7555.736,0.0,-0.653,-0.0,0.0,0.0,0.0,-0.053,0.0,0.0,0.0,0.0,0.36,0.029,12.586,0.0,-0.112,1.23,0.0,0.0,0.0,0.0,0.0,0.0,-0.033,0.0,0.0,-0.001,0.0,0.0,0.0,0.051,0.0,0.0,52.705,47.725,0.158,1395.094
3.611,-45.727,2020.358,0.0,51.523,10.741,0.0,0.0,0.0,0.097,0.995,0.0,0.0,0.051,-2205.112,7543.667,0.0,-0.653,-0.0,0.0,0.0,0.0,-0.053,0.0,0.0,0.0,0.0,0.361,0.029,12.591,0.0,-0.112,1.228,0.0,0.0,0.0,0.0,0.0,0.0,-0.033,0.0,0.0,-0.001,0.0,0.0,0.0,0.051,0.0,0.0,52.656,47.68,0.158,1392.46
3.627,-44.872,2020.537,0.0,51.467,10.77,0.0,0.0,0.0,0.097,0.995,0.0,0.0,0.051,-2207.267,7529.874,0.0,-0.647,-0.0,0.0,0.0,0.0,-0.053,0.0,0.0,0.0,0.0,0.361,0.029,12.593,0.0,-0.111,1.226,0.0,0.0,0.0,0.0,0.0,0.0,-0.033,0.0,0.0,-0.001,0.0,0.0,0.0,0.051,0.0,0.0,52.606,47.635,0.158,1389.829
3.644,-44.018,2020.716,0.0,51.41,10.799,0.0,0.0,0.0,0.098,0.995,0.0,0.0,0.051,-2209.645,7517.329,0.0,-0.647,-0.0,0.0,0.0,0.0,-0.053,0.0,0.0,0.0,0.0,0.361,0.029,12.597,0.0,-0.111,1.224,0.0,0.0,0.0,0.0,0.0,0.0,-0.033,0.0,0.0,-0.001,0.0,0.0,0.0,0.051,0.0,0.0,52.557,47.59,0.158,1387.204
3.661,-43.16,2020.896,0.0,51.354,10.828,0.0,0.0,0.0,0.098,0.995,0.0,0.0,0.051,-2212.615,7507.418,0.0,-0.647,-0.0,0.0,0.0,0.0,-0.053,0.0,0.0,0.0,0.0,0.361,0.029,12.604,0.0,-0.111,1.223,0.0,0.0,0.0,0.0,0.0,0.0,-0.033,0.0,0.0,-0.001,0.0,0.0,0.0,0.051,0.0,0.0,52.508,47.545,0.158,1384.572
3.677,-42.303,2021.077,0.0,51.297,10.857,0.0,0.0,0.0,0.098,0.995,0.0,0.0,0.05,-2214.941,7494.924,0.0,-0.642,-0.0,0.0,0.0,0.0,-0.053,0.0,0.0,0.0,0.0,0.361,0.029,12.608,0.0,-0.111,1.221,0.0,0.0,0.0,0.0,0.0,0.0,-0.033,0.0,0.0,-0.001,0.0,0.0,0.0,0.05,0.0,0.0,52.458,47.5,0.158,1381.93
3.694,-41.442,2021.26,0.0,51.239,10.886,0.0,0.0,0.0,0.099,0.995,0.0,0.0,0.05,-2217.85,7484.998,0.0,-0.642,-0.0,0.0,0.0,0.0,-0.053,0.0,0.0,0.0,0.0,0.362,0.029,12.615,0.0,-0.11,1.22,0.0,0.0,0.0,0.0,0.0,0.0,-0.033,0.0,0.0,-0.001,0.0,0.0,0.0,0.05,0.0,0.0,52.408,47.454,0.158,1379.277
3.711,-40.596,2021.44,0.0,51.183,10.914,0.0,0.0,0.0,0.099,0.995,0.0,0.0,0.05,-2220.117,7472.707,0.0,-0.636,-0.0,0.0,0.0,0.0,-0.053,0.0,0.0,0.0,0.0,0.362,0.029,12.619,0.0,-0.11,1.218,0.0,0.0,0.0,0.0,0.0,0.0,-0.033,0.0,0.0,-0.001,0.0,0.0,0.0,0.05,0.0,0.0,52.358,47.408,0.158,1376.637
3.727,-39.737,2021.623,0.0,51.126,10.942,0.0,0.0,0.0,0.1,0.995,0.0,0.0,0.05,-2222.824,7462.439,0.0,-0.636,-0.0,0.0,0.0,0.0,-0.053,0.0,0.0,0.0,0.0,0.362,0.029,12.626,0.0,-0.11,1.217,0.0,0.0,0.0,0.0,0.0,0.0,-0.033,0.0,0.0,-0.001,0.0,0.0,0.0,0.05,0.0,0.0,52.308,47.363,0.157,1373.992
3.744,-38.889,2021.805,0.0,51.069,10.97,0.0,0.0,0.0,0.1,0.995,0.0,0.0,0.05,-2225.727,7453.107,0.0,-0.63,-0.0,0.0,0.0,0.0,-0.053,0.0,0.0,0.0,0.0,0.362,0.029,12.634,0.0,-0.11,1.215,0.0,0.0,0.0,0.0,0.0,0.0,-0.033,0.0,0.0,-0.001,0.0,0.0,0.0,0.05,0.0,0.0,52.258,47.317,0.157,1371.335
3.761,-38.036,2021.989,0.0,51.011,10.997,0.0,0.0,0.0,0.1,0.995,0.0,0.0,0.049,-2228.371,7442.876,0.0,-0.63,-0.0,0.0,0.0,0.0,-0.053,0.0,0.0,0.0,0.0,0.363,0.029,12.641,0.0,-0.11,1.214,0.0,0.0,0.0,0.0,0.0,0.0,-0.033,0.0,0.0,-0.001,0.0,0.0,0.0,0.05,0.0,0.0,52.208,47.272,0.157,1368.69
3.777,-37.185,2022.172,0.0,50.954,11.024,0.0,0.0,0.0,0.101,0.995,0.0,0.0,0.049,-2231.458,7434.564,0.0,-0.625,-0.0,0.0,0.0,0.0,-0.053,0.0,0.0,0.0,0.0,0.363,0.029,12.65,0.0,-0.109,1.213,0.0,0.0,0.0,0.0,0.0,0.0,-0.033,0.0,0.0,-0.002,0.0,0.0,0.0,0.049,0.0,0.0,52.158,47.226,0.157,1366.03
3.794,-36.345,2022.355,0.0,50.897,11.051,0.0,0.0,0.0,0.101,0.995,0.0,0.0,0.049,-2234.048,7424.523,0.0,-0.619,-0.0,0.0,0.0,0.0,-0.053,0.0,0.0,0.0,0.0,0.363,0.029,12.657,0.0,-0.109,1.211,0.0,0.0,0.0,0.0,0.0,0.0,-0.033,0.0,0.0,-0.002,0.0,0.0,0.0,0.049,0.0,0.0,52.108,47.18,0.157,1363.386
3.811,-35.495,2022.539,0.0,50.84,11.078,0.0,0.0,0.0,0.102,0.995,0.0,0.0,0.049,-2236.909,7415.692,0.0,-0.619,-0.0,0.0,0.0,0.0,-0.053,0.0,0.0,0.0,0.0,0.364,0.029,12.665,0.0,-0.109,1.21,0.0,0.0,0.0,0.0,0.0,0.0,-0.033,0.0,0.0,-0.002,0.0,0.0,0.0,0.049,0.0,0.0,52.058,47.134,0.157,1360.74
3.827,-34.647,2022.725,0.0,50.782,11.104,0.0,0.0,0.0,0.102,0.995,0.0,0.0,0.049,-2240.092,7408.179,0.0,-0.613,-0.0,0.0,0.0,0.0,-0.053,0.0,0.0,0.0,0.0,0.364,0.029,12.675,0.0,-0.108,1.209,0.0,0.0,0.0,0.0,0.0,0.0,-0.033,0.0,0.0,-0.002,0.0,0.0,0.0,0.049,0.0,0.0,52.008,47.088,0.156,1358.074
3.844,-33.804,2022.909,0.0,50.725,11.131,0.0,0.0,0.0,0.102,0.995,0.0,0.0,0.048,-2242.731,7398.623,0.0,-0.607,-0.0,0.0,0.0,0.0,-0.053,0.0,0.0,0.0,0.0,0.364,0.029,12.683,0.0,-0.108,1.208,0.0,0.0,0.0,0.0,0.0,0.0,-0.033,0.0,0.0,-0.002,0.0,0.0,0.0,0.048,0.0,0.0,51.957,47.042,0.156,1355.413
3.861,-32.953,2023.096,0.0,50.667,11.157,0.0,0.0,0.0,0.103,0.995,0.0,0.0,0.048,-2246.101,7392.109,0.0,-0.607,-0.0,0.0,0.0,0.0,-0.053,0.0,0.0,0.0,0.0,0.365,0.029,12.694,0.0,-0.108,1.207,0.0,0.0,0.0,0.0,0.0,0.0,-0.033,0.0,0.0,-0.002,0.0,0.0,0.0,0.048,0.0,0.0,51.906,46.995,0.156,1352.743
3.877,-32.117,2023.281,0.0,50.61,11.182,0.0,0.0,0.0,0.103,0.995,0.0,0.0,0.048,-2248.664,7382.507,0.0,-0.602,-0.0,0.0,0.0,0.0,-0.053,0.0,0.0,0.0,0.0,0.365,0.029,12.702,0.0,-0.108,1.206,0.0,0.0,0.0,0.0,0.0,0.0,-0.033,0.0,0.0,-0.002,0.0,0.0,0.0,0.048,0.0,0.0,51.856,46.949,0.156,1350.077
3.894,-31.267,2023.469,0.0,50.552,11.208,0.0,0.0,0.0,0.104,0.995,0.0,0.0,0.048,-2251.652,7374.753,0.0,-0.596,-0.0,0.0,0.0,0.0,-0.053,0.0,0.0,0.0,0.0,0.366,0.029,12.712,0.0,-0.108,1.205,0.0,0.0,0.0,0.0,0.0,0.0,-0.033,0.0,0.0,-0.002,0.0,0.0,0.0,0.048,0.0,0.0,51.805,46.903,0.156,1347.411
3.911,-30.429,2023.655,0.0,50.494,11.234,0.0,0.0,0.0,0.104,0.995,0.0,0.0,0.048,-2254.829,7367.781,0.0,-0.59,-0.0,0.0,0.0,0.0,-0.053,0.0,0.0,0.0,0.0,0.366,0.029,12.723,0.0,-0.107,1.204,0.0,0.0,0.0,0.0,0.0,0.0,-0.033,0.0,0.0,-0.002,0.0,0.0,0.0,0.048,0.0,0.0,51.754,46.856,0.156,1344.736
3.927,-29.586,2023.843,0.0,50.436,11.259,0.0,0.0,0.0,0.104,0.994,0.0,0.0,0.047,-2257.706,7359.769,0.0,-0.59,-0.0,0.0,0.0,0.0,-0.053,0.0,0.0,0.0,0.0,0.367,0.029,12.733,0.0,-0.107,1.203,0.0,0.0,0.0,0.0,0.0,0.0,-0.033,0.0,0.0,-0.002,0.0,0.0,0.0,0.048,0.0,0.0,51.703,46.81,0.156,1342.066
3.944,-28.739,2024.032,0.0,50.378,11.284,0.0,0.0,0.0,0.105,0.994,0.0,0.0,0.047,-2261.08,7353.752,0.0,-0.584,-0.0,0.0,0.0,0.0,-0.053,0.0,0.0,0.0,0.0,0.367,0.029,12.745,0.0,-0.107,1.202,0.0,0.0,0.0,0.0,0.0,0.0,-0.033,0.0,0.0,-0.002,0.0,0.0,0.0,0.047,0.0,0.0,51.652,46.763,0.155,1339.378
3.961,-27.908,2024.219,0.0,50.32,11.309,0.0,0.0,0.0,0.105,0.994,0.0,0.0,0.047,-2263.745,7345.111,0.0,-0.579,-0.0,0.0,0.0,0.0,-0.053,0.0,0.0,0.0,0.0,0.368,0.029,12.754,0.0,-0.106,1.201,0.0,0.0,0.0,0.0,0.0,0.0,-0.033,0.0,0.0,-0.002,0.0,0.0,0.0,0.047,0.0,0.0,51.601,46.716,0.155,1336.706
3.977,-27.068,2024.408,0.0,50.262,11.334,0.0,0.0,0.0,0.106,0.994,0.0,0.0,0.047,-2267.386,7340.515,0.0,-0.573,-0.0,0.0,0.0,0.0,-0.053,0.0,0.0,0.0,0.0,0.368,0.029,12.768,0.0,-0.106,1.201,0.0,0.0,0.0,0.0,0.0,0.0,-0.033,0.0,0.0,-0.002,0.0,0.0,0.0,0.047,0.0,0.0,51.55,46.669,0.155,1334.036
3.994,-26.234,2024.596,0.0,50.204,11.358,0.0,0.0,0.0,0.106,0.994,0.0,0.0,0.047,-2270.184,7332.561,0.0,-0.567,-0.0,0.0,0.0,0.0,-0.053,0.0,0.0,0.0,0.0,0.368,0.029,12.778,0.0,-0.106,1.2,0.0,0.0,0.0,0.0,0.0,0.0,-0.033,0.0,0.0,-0.002,0.0,0.0,0.0,0.047,0.0,0.0,51.498,46.622,0.155,1331.356
4.011,-25.396,2024.786,0.0,50.145,11.383,0.0,0.0,0.0,0.106,0.994,0.0,0.0,0.046,-2273.113,7325.202,0.0,-0.561,-0.0,0.0,0.0,0.0,-0.053,0.0,0.0,0.0,0.0,0.369,0.029,12.788,0.0,-0.106,1.199,0.0,0.0,0.0,0.0,0.0,0.0,-0.033,0.0,0.0,-0.002,0.0,0.0,0.0,0.046,0.0,0.0,51.447,46.575,0.155,1328.676
4.027,-24.56,2024.976,0.0,50.087,11.407,0.0,0.0,0.0,0.107,0.994,0.0,0.0,0.046,-2276.543,7319.88,0.0,-0.556,-0.0,0.0,0.0,0.0,-0.053,0.0,0.0,0.0,0.0,0.37,0.029,12.802,0.0,-0.105,1.198,0.0,0.0,0.0,0.0,0.0,0.0,-0.033,0.0,0.0,-0.002,0.0,0.0,0.0,0.046,0.0,0.0,51.395,46.528,0.155,1325.986
4.044,-23.729,2025.166,0.0,50.029,11.431,0.0,0.0,0.0,0.107,0.994,0.0,0.0,0.046,-2279.364,7312.261,0.0,-0.556,-0.0,0.0,0.0,0.0,-0.053,0.0,0.0,0.0,0.0,0.37,0.029,12.812,0.0,-0.105,1.197,0.0,0.0,0.0,0.0,0.0,0.0,-0.033,0.0,0.0,-0.002,0.0,0.0,0.0,0.046,0.0,0.0,51.344,46.481,0.154,1323.302
4.061,-22.894,2025.357,0.0,49.97,11.455,0.0,0.0,0.0,0.108,0.994,0.0,0.0,0.046,-2282.905,7307.518,0.0,-0.55,-0.0,0.0,0.0,0.0,-0.053,0.0,0.0,0.0,0.0,0.37,0.029,12.826,0.0,-0.105,1.196,0.0,0.0,0.0,0.0,0.0,0.0,-0.033,0.0,0.0,-0.002,0.0,0.0,0.0,0.046,0.0,0.0,51.292,46.434,0.154,1320.618
4.077,-22.065,2025.547,0.0,49.912,11.479,0.0,0.0,0.0,0.108,0.994,0.0,0.0,0.046,-2285.719,7300.003,0.0,-0.544,-0.0,0.0,0.0,0.0,-0.053,0.0,0.0,0.0,0.0,0.371,0.029,12.836,0.0,-0.105,1.196,0.0,0.0,0.0,0.0,0.0,0.0,-0.033,0.0,0.0,-0.002,0.0,0.0,0.0,0.046,0.0,0.0,51.24,46.387,0.154,1317.929
4.094,-21.227,2025.74,0.0,49.852,11.502,0.0,0.0,0.0,0.108,0.994,0.0,0.0,0.045,-2289.3,7295.533,0.0,-0.539,-0.0,0.0,0.0,0.0,-0.053,0.0,0.0,0.0,0.0,0.372,0.029,12.851,0.0,-0.104,1.195,0.0,0.0,0.0,0.0,0.0,0.0,-0.033,0.0,0.0,-0.002,0.0,0.0,0.0,0.046,0.0,0.0,51.188,46.339,0.154,1315.231
4.111,-20.4,2025.931,0.0,49.794,11.526,0.0,0.0,0.0,0.109,0.994,0.0,0.0,0.045,-2292.012,7287.726,0.0,-0.533,-0.0,0.0,0.0,0.0,-0.053,0.0,0.0,0.0,0.0,0.372,0.029,12.861,0.0,-0.104,1.194,0.0,0.0,0.0,0.0,0.0,0.0,-0.033,0.0,0.0,-0.002,0.0,0.0,0.0,0.045,0.0,0.0,51.136,46.292,0.154,1312.53
4.144,-18.743,2026.316,0.0,49.676,11.572,0.0,0.0,0.0,0.11,0.994,0.016,-0.0,0.045,-2296.688,7269.676,0.936,-0.521,0.0,0.0,0.166,0.0,-0.053,0.133,0.0,0.0,0.0,0.373,0.029,12.879,-0.0,-0.104,1.192,0.0,0.0,0.0,0.0,0.025,0.0,-0.033,0.024,0.0,-0.002,0.0,0.0,0.0,0.045,0.011,-0.0,51.032,46.197,0.154,1307.15
4.161,-17.914,2026.509,0.0,49.617,11.594,0.0,0.0,0.0,0.11,0.994,0.031,-0.0,0.045,-2296.018,7249.301,3.053,-0.527,0.0,0.0,0.25,0.0,-0.053,0.2,0.0,0.0,0.0,0.373,0.029,12.875,-0.0,-0.103,1.188,0.0,0.0,0.0,0.0,0.038,0.0,-0.033,0.035,0.0,-0.002,0.0,0.0,0.0,0.045,0.024,-0.0,50.98,46.149,0.153,1304.452
4.177,-17.086,2026.703,0.0,49.558,11.617,0.0,0.001,0.0,0.11,0.994,0.051,-0.0,0.044,-2299.69,7245.812,7.475,-0.521,0.006,0.0,0.334,0.0,-0.053,0.267,0.0,0.0,0.0,0.373,0.029,12.89,-0.0,-0.103,1.188,0.0,0.0,0.0,0.0,0.05,0.0,-0.033,0.046,0.0,-0.002,0.0,0.0,0.0,0.044,0.041,-0.0,50.928,46.101,0.153,1301.747
4.194,-16.264,2026.896,0.0,49.499,11.639,0.001,0.001,0.0,0.111,0.994,0.075,-0.0,0.044,-2302.73,7239.994,13.805,-0.516,0.006,0.0,0.416,0.0,-0.053,0.333,0.0,0.0,0.0,0.374,0.029,12.903,-0.0,-0.103,1.187,0.0,0.0,0.0,0.0,0.063,0.0,-0.033,0.056,0.0,-0.002,0.0,0.0,0.0,0.044,0.063,-0.0,50.875,46.053,0.153,1299.048
4.211,-15.433,2027.092,0.0,49.44,11.661,0.001,0.002,0.0,0.111,0.994,0.103,-0.0,0.044,-2306.511,7236.993,22.543,-0.504,0.006,0.0,0.5,0.0,-0.053,0.4,0.0,0.0,0.0,0.374,0.029,12.92,-0.0,-0.102,1.187,0.0,0.0,0.0,0.0,0.076,0.0,-0.033,0.065,0.0,-0.002,0.0,0.0,0.0,0.044,0.089,-0.0,50.823,46.005,0.153,1296.34
4.227,-14.608,2027.287,0.0,49.38,11.683,0.002,0.003,0.0,0.112,0.994,0.135,-0.0,0.044,-2309.404,7230.576,34.76,-0.498,0.0,0.0,0.584,0.0,-0.053,0.467,0.0,0.0,0.0,0.375,0.029,12.932,-0.0,-0.102,1.186,0.0,0.0,0.0,0.0,0.088,0.0,-0.033,0.074,0.0,-0.002,0.0,0.0,0.0,0.044,0.119,-0.0,50.77,45.957,0.153,1293.624
4.244,-13.788,2027.481,0.0,49.321,11.705,0.004,0.004,0.0,0.112,0.994,0.171,-0.0,0.044,-2312.412,7224.757,52.149,-0.493,0.0,0.0,0.667,0.0,-0.053,0.534,0.0,0.0,0.0,0.376,0.029,12.945,-0.0,-0.102,1.186,0.0,0.0,0.0,0.0,0.101,0.0,-0.033,0.083,0.0,-0.002,0.0,0.0,0.0,0.044,0.153,-0.0,50.718,45.909,0.153,1290.922
4.261,-12.97,2027.675,0.0,49.262,11.726,0.005,0.006,0.001,0.112,0.994,0.21,-0.0,0.043,-2316.139,7221.737,74.777,-0.487,0.006,0.0,0.75,0.0,-0.053,0.6,0.0,0.0,0.0,0.376,0.029,12.962,-0.0,-0.102,1.186,0.0,0.0,0.0,0.0,0.113,0.0,-0.033,0.091,0.0,-0.002,0.0,0.0,0.0,0.044,0.19,-0.0,50.665,45.861,0.152,1288.224
4.277,-12.148,2027.871,0.0,49.203,11.748,0.008,0.008,0.001,0.113,0.994,0.252,-0.0,0.043,-2319.18,7216.083,101.338,-0.481,0.006,0.0,0.8,0.0,-0.053,0.667,0.0,0.0,0.0,0.377,0.029,12.975,-0.0,-0.101,1.185,0.0,0.0,0.0,0.0,0.126,0.0,-0.033,0.099,0.0,-0.002,0.0,0.0,0.0,0.043,0.231,-0.0,50.612,45.813,0.152,1285.515
4.294,-11.327,2028.068,0.0,49.143,11.77,0.011,0.01,0.001,0.113,0.994,0.298,-0.0,0.043,-2322.649,7211.987,132.969,-0.476,0.006,0.0,0.8,0.0,-0.053,0.734,0.0,0.0,0.0,0.378,0.029,12.991,-0.0,-0.101,1.184,0.0,0.0,0.0,0.0,0.138,0.0,-0.033,0.106,0.0,-0.002,0.0,0.0,0.0,0.043,0.275,-0.0,50.559,45.764,0.152,1282.798
4.311,-10.507,2028.264,0.001,49.083,11.791,0.016,0.013,0.001,0.114,0.994,0.346,-0.0,0.042,-2325.996,7207.394,170.098,-0.464,-0.0,0.0,0.8,0.0,-0.053,0.8,0.0,0.0,0.0,0.378,0.029,13.007,0.0,-0.101,1.184,-0.0,0.0,0.0,0.0,0.151,0.0,-0.033,0.113,0.0,-0.003,0.0,0.0,0.0,0.043,0.322,-0.0,50.506,45.716,0.152,1280.079
4.327,-9.692,2028.46,0.001,49.024,11.812,0.021,0.016,0.002,0.114,0.993,0.392,-0.001,0.042,-2328.615,7200.089,213.573,-0.458,-0.006,0.0,0.8,0.0,-0.053,0.8,0.0,0.0,0.0,0.379,0.029,13.02,0.0,-0.1,1.183,-0.0,0.0,0.0,0.0,0.151,0.0,-0.033,0.108,0.0,-0.003,0.0,0.0,0.0,0.042,0.369,-0.001,50.453,45.667,0.152,1277.367
4.344,-8.869,2028.659,0.001,48.964,11.833,0.028,0.019,0.002,0.114,0.993,0.436,-0.001,0.042,-2326.395,7174.806,261.525,-0.464,-0.0,0.0,0.8,0.0,-0.053,0.8,0.0,0.0,0.0,0.378,0.029,13.011,0.0,-0.1,1.18,-0.0,0.0,0.0,0.0,0.151,0.0,-0.033,0.102,0.0,-0.002,0.0,0.0,0.0,0.042,0.414,-0.001,50.4,45.619,0.152,1274.646
4.361,-8.062,2028.854,0.002,48.904,11.852,0.036,0.023,0.002,0.114,0.993,0.476,-0.001,0.042,-2323.999,7149.235,315.158,-0.47,-0.006,0.0,0.8,0.0,-0.053,0.8,0.0,0.0,0.0,0.378,0.029,13.003,0.0,-0.1,1.176,-0.0,0.0,0.0,0.0,0.151,0.0,-0.033,0.097,0.0,-0.002,0.0,0.0,0.0,0.042,0.456,-0.001,50.347,45.57,0.152,1271.935
4.377,-7.251,2029.051,0.002,48.845,11.872,0.046,0.027,0.003,0.115,0.993,0.515,-0.001,0.042,-2321.996,7125.493,372.191,-0.47,-0.011,0.0,0.8,0.0,-0.053,0.8,0.0,0.0,0.0,0.378,0.029,12.998,0.0,-0.1,1.173,-0.0,0.0,0.0,0.0,0.151,0.0,-0.033,0.092,0.0,-0.002,0.0,0.0,0.0,0.042,0.496,-0.001,50.294,45.522,0.151,1269.238
4.394,-6.435,2029.25,0.003,48.786,11.89,0.057,0.031,0.004,0.115,0.993,0.553,-0.001,0.041,-2320.395,7103.335,434.148,-0.47,-0.017,0.0,0.8,0.0,-0.053,0.8,0.0,0.0,0.0,0.378,0.029,12.995,0.0,-0.1,1.17,-0.0,0.0,0.0,0.0,0.151,0.0,-0.033,0.088,0.0,-0.002,0.0,0.0,0.0,0.042,0.534,-0.001,50.24,45.473,0.151,1266.525
4.411,-5.621,2029.448,0.004,48.726,11.909,0.07,0.036,0.004,0.115,0.993,0.588,-0.002,0.041,-2318.652,7080.769,500.217,-0.47,-0.029,0.0,0.8,0.0,-0.053,0.8,0.0,0.0,0.0,0.378,0.029,12.993,0.0,-0.1,1.167,-0.0,0.0,0.0,0.0,0.151,0.0,-0.033,0.084,-0.0,-0.002,0.0,0.0,0.0,0.041,0.57,-0.002,50.187,45.424,0.151,1263.804
4.427,-4.798,2029.65,0.006,48.666,11.926,0.084,0.041,0.005,0.116,0.992,0.622,-0.002,0.041,-2316.162,7055.411,570.776,-0.476,-0.034,0.0,0.8,0.0,-0.053,0.8,0.0,0.0,0.0,0.378,0.029,12.989,0.0,-0.099,1.164,-0.001,0.0,0.0,0.0,0.151,0.0,-0.033,0.08,-0.0,-0.002,0.0,0.0,0.0,0.041,0.605,-0.002,50.133,45.375,0.151,1261.064
4.444,-3.996,2029.847,0.007,48.607,11.943,0.101,0.046,0.005,0.116,0.992,0.653,-0.002,0.041,-2314.47,7033.171,644.979,-0.476,-0.046,0.0,0.8,0.0,-0.053,0.8,0.0,0.0,0.0,0.378,0.029,12.99,0.0,-0.099,1.162,-0.001,0.0,0.0,0.0,0.151,0.0,-0.033,0.076,-0.0,-0.002,0.0,0.0,0.0,0.041,0.638,-0.002,50.079,45.326,0.151,1258.342
4.461,-3.184,2030.046,0.009,48.548,11.959,0.119,0.052,0.006,0.116,0.992,0.683,-0.002,0.041,-2312.378,7009.546,721.341,-0.476,-0.057,0.0,0.8,0.0,-0.053,0.8,0.0,0.0,0.0,0.378,0.029,12.99,0.0,-0.099,1.159,-0.001,0.0,0.0,0.0,0.151,0.0,-0.033,0.072,-0.0,-0.002,0.0,0.0,0.0,0.041,0.668,-0.002,50.026,45.277,0.15,1255.632
4.477,-2.379,2030.245,0.011,48.489,11.975,0.14,0.058,0.006,0.117,0.992,0.712,-0.003,0.04,-2311.173,6989.022,801.714,-0.47,-0.069,0.0,0.8,0.0,-0.053,0.8,0.0,0.0,0.0,0.378,0.029,12.995,0.0,-0.099,1.158,-0.001,0.0,0.0,0.0,0.151,0.0,-0.033,0.068,-0.0,-0.002,0.0,0.0,0.0,0.04,0.698,-0.002,49.972,45.228,0.15,1252.917
4.494,-1.57,2030.445,0.014,48.429,11.99,0.162,0.064,0.007,0.117,0.991,0.739,-0.003,0.04,-2309.155,6965.347,884.798,-0.47,-0.08,0.0,0.8,0.0,-0.053,0.8,0.0,0.0,0.0,0.378,0.029,12.998,0.0,-0.098,1.155,-0.002,0.0,0.0,0.0,0.151,0.0,-0.033,0.065,-0.0,-0.002,0.0,0.0,0.0,0.04,0.726,-0.003,49.919,45.179,0.15,1250.202
4.511,-0.766,2030.644,0.017,48.37,12.005,0.187,0.07,0.008,0.117,0.991,0.764,-0.003,0.04,-2307.055,6941.182,970.397,-0.47,-0.097,0.0,0.8,0.0,-0.053,0.8,0.0,0.0,0.0,0.378,0.029,13.002,0.001,-0.098,1.153,-0.002,0.0,0.0,0.0,0.151,0.0,-0.033,0.062,-0.0,-0.002,0.0,0.0,0.0,0.04,0.752,-0.003,49.865,45.13,0.15,1247.488
4.527,0.036,2030.844,0.02,48.312,12.019,0.214,0.076,0.008,0.118,0.99,0.789,-0.004,0.04,-2305.328,6918.117,1059.138,-0.464,-0.12,0.0,0.8,0.0,-0.053,0.8,0.0,0.0,0.0,0.378,0.029,13.009,0.001,-0.098,1.152,-0.002,0.0,0.0,0.0,0.151,0.0,-0.033,0.059,-0.0,-0.002,0.0,0.0,0.0,0.04,0.777,-0.003,49.811,45.081,0.15,1244.782
4.544,0.842,2031.044,0.024,48.252,12.032,0.244,0.083,0.009,0.118,0.99,0.812,-0.004,0.04,-2303.167,6893.093,1150.53,-0.464,-0.138,0.0,0.8,0.0,-0.053,0.8,0.0,0.0,0.0,0.379,0.029,13.016,0.001,-0.098,1.15,-0.003,0.0,0.0,0.0,0.151,0.0,-0.033,0.056,-0.0,-0.002,0.0,0.0,0.0,0.04,0.8,-0.004,49.757,45.032,0.15,1242.064
4.561,1.648,2031.246,0.028,48.193,12.045,0.276,0.09,0.01,0.118,0.989,0.834,-0.004,0.039,-2301.114,6868.017,1244.351,-0.458,-0.155,0.0,0.8,0.0,-0.053,0.8,0.0,0.0,0.0,0.379,0.029,13.025,0.001,-0.097,1.149,-0.003,0.0,0.0,0.0,0.151,0.0,-0.033,0.053,-0.0,-0.002,0.0,0.0,0.0,0.04,0.823,-0.004,49.703,44.982,0.15,1239.339
4.577,2.457,2031.448,0.033,48.134,12.057,0.311,0.096,0.011,0.118,0.988,0.855,-0.004,0.039,-2298.539,6840.51,1340.684,-0.453,-0.172,0.0,0.8,0.0,-0.053,0.8,0.0,0.0,0.0,0.379,0.029,13.033,0.001,-0.097,1.147,-0.003,0.0,0.0,0.0,0.151,0.0,-0.033,0.05,-0.0,-0.002,0.0,0.0,0.0,0.039,0.845,-0.004,49.649,44.933,0.149,1236.608
4.594,3.255,2031.648,0.038,48.075,12.068,0.347,0.104,0.012,0.119,0.988,0.87,-0.005,0.039,-2295.493,6810.9,1437.071,-0.453,-0.201,0.0,0.666,0.0,-0.053,0.734,0.0,0.0,0.0,0.38,0.029,13.04,0.001,-0.097,1.146,-0.004,0.0,0.0,0.0,0.138,0.0,-0.033,0.036,-0.0,-0.002,0.0,0.0,0.0,0.039,0.862,-0.005,49.595,44.883,0.149,1233.885
4.611,4.058,2031.85,0.044,48.016,12.078,0.387,0.111,0.012,0.119,0.987,0.879,-0.005,0.039,-2286.68,6760.412,1530.528,-0.458,-0.229,0.0,0.534,0.0,-0.053,0.667,0.0,0.0,0.0,0.379,0.029,13.022,0.001,-0.097,1.141,-0.004,0.0,0.0,0.0,0.126,0.0,-0.033,0.022,-0.0,-0.002,0.0,0.0,0.0,0.039,0.874,-0.005,49.541,44.834,0.149,1231.172
4.627,4.854,2032.05,0.051,47.958,12.086,0.428,0.118,0.013,0.119,0.986,0.882,-0.006,0.039,-2278.732,6712.896,1624.421,-0.464,-0.264,0.0,0.4,0.0,-0.053,0.6,0.0,0.0,0.0,0.378,0.029,13.01,0.002,-0.097,1.137,-0.005,0.0,0.0,0.0,0.113,0.0,-0.033,0.008,-0.0,-0.002,0.0,0.0,0.0,0.039,0.88,-0.006,49.487,44.784,0.149,1228.456
4.644,5.655,2032.252,0.059,47.9,12.094,0.472,0.125,0.014,0.119,0.985,0.88,-0.006,0.039,-2269.822,6661.82,1716.484,-0.476,-0.292,0.0,0.266,0.0,-0.053,0.534,0.0,0.0,0.0,0.378,0.029,12.995,0.002,-0.096,1.132,-0.006,0.0,0.0,0.0,0.101,0.0,-0.033,-0.004,-0.0,-0.002,0.0,0.0,0.0,0.039,0.881,-0.006,49.432,44.735,0.149,1225.743
4.661,6.449,2032.453,0.067,47.842,12.1,0.518,0.132,0.015,0.119,0.984,0.874,-0.006,0.039,-2261.677,6613.176,1809.046,-0.476,-0.327,0.0,0.134,0.0,-0.053,0.467,0.0,0.0,0.0,0.377,0.029,12.985,0.002,-0.096,1.128,-0.006,0.0,0.0,0.0,0.088,0.0,-0.033,-0.016,-0.0,-0.002,0.0,0.0,0.0,0.039,0.877,-0.006,49.378,44.685,0.148,1223.033
4.677,7.253,2032.656,0.076,47.784,12.105,0.568,0.14,0.016,0.12,0.983,0.862,-0.007,0.039,-2252.497,6560.69,1898.292,-0.487,-0.367,0.0,0.0,0.0,-0.053,0.4,0.0,0.0,0.0,0.377,0.029,12.97,0.002,-0.096,1.124,-0.007,0.0,0.0,0.0,0.076,0.0,-0.033,-0.028,-0.0,-0.002,0.0,0.0,0.0,0.039,0.868,-0.007,49.324,44.636,0.148,1220.314
4.694,8.041,2032.856,0.086,47.727,12.108,0.618,0.147,0.016,0.12,0.982,0.846,-0.007,0.039,-2244.067,6510.751,1985.639,-0.493,-0.407,0.0,0.0,0.0,-0.053,0.334,0.0,0.0,0.0,0.376,0.029,12.96,0.002,-0.096,1.12,-0.008,0.0,0.0,0.0,0.063,0.0,-0.033,-0.039,-0.0,-0.002,0.0,0.0,0.0,0.039,0.854,-0.007,49.27,44.586,0.148,1217.608
4.711,8.837,2033.058,0.097,47.67,12.11,0.671,0.154,0.017,0.12,0.981,0.826,-0.008,0.039,-2235.595,6460.582,2069.372,-0.493,-0.447,0.0,0.0,0.0,-0.053,0.267,0.0,0.0,0.0,0.376,0.029,12.949,0.003,-0.096,1.116,-0.009,0.0,0.0,0.0,0.05,0.0,-0.033,-0.049,-0.0,-0.002,0.0,0.0,0.0,0.039,0.836,-0.008,49.216,44.537,0.148,1214.91
4.727,9.638,2033.262,0.108,47.612,12.111,0.727,0.16,0.018,0.12,0.98,0.802,-0.008,0.039,-2227.163,6410.201,2151.559,-0.498,-0.481,0.0,0.0,0.0,-0.053,0.2,0.0,0.0,0.0,0.375,0.029,12.94,0.003,-0.096,1.113,-0.009,0.0,0.0,0.0,0.038,0.0,-0.033,-0.059,-0.0,-0.002,0.0,0.0,0.0,0.039,0.814,-0.008,49.161,44.487,0.148,1212.194
4.744,10.423,2033.462,0.121,47.556,12.111,0.783,0.167,0.018,0.12,0.978,0.775,-0.009,0.039,-2218.374,6358.763,2227.696,-0.504,-0.527,0.0,0.0,0.0,-0.053,0.134,0.0,0.0,0.0,0.375,0.029,12.928,0.003,-0.095,1.109,-0.01,0.0,0.0,0.0,0.025,0.0,-0.033,-0.069,-0.001,-0.002,0.0,0.0,0.0,0.039,0.788,-0.008,49.107,44.437,0.148,1209.492
4.761,11.216,2033.664,0.134,47.499,12.109,0.842,0.173,0.019,0.121,0.977,0.744,-0.009,0.039,-2209.463,6307.0,2299.102,-0.51,-0.579,0.0,0.0,0.0,-0.053,0.067,0.0,0.0,0.0,0.374,0.029,12.914,0.004,-0.095,1.105,-0.011,0.0,0.0,0.0,0.013,0.0,-0.033,-0.078,-0.001,-0.001,0.0,0.0,0.0,0.039,0.759,-0.009,49.052,44.388,0.148,1206.803
4.777,12.014,2033.867,0.149,47.442,12.106,0.904,0.179,0.02,0.121,0.976,0.708,-0.01,0.039,-2200.918,6256.382,2367.281,-0.516,-0.625,0.0,0.0,0.0,-0.053,0.0,0.0,0.0,0.0,0.374,0.029,12.903,0.004,-0.095,1.101,-0.012,0.0,0.0,0.0,0.0,0.0,-0.033,-0.086,-0.001,-0.001,0.0,0.0,0.0,0.039,0.726,-0.009,48.998,44.338,0.147,1204.092
4.794,12.796,2034.067,0.165,47.386,12.102,0.965,0.184,0.02,0.121,0.975,0.676,-0.01,0.039,-2192.108,6205.148,2429.878,-0.521,-0.67,0.0,0.0,0.0,-0.053,0.0,0.0,0.0,0.0,0.373,0.029,12.889,0.004,-0.095,1.096,-0.013,0.0,0.0,0.0,0.0,0.0,-0.033,-0.082,-0.001,-0.001,0.0,0.0,0.0,0.039,0.692,-0.01,48.944,44.288,0.147,1201.401
4.81,13.582,2034.268,0.181,47.33,12.096,1.029,0.19,0.021,0.121,0.974,0.645,-0.011,0.039,-2183.377,6154.672,2486.549,-0.527,-0.728,0.0,0.0,0.0,-0.053,0.0,0.0,0.0,0.0,0.372,0.029,12.874,0.004,-0.095,1.092,-0.014,0.0,0.0,0.0,0.0,0.0,-0.033,-0.078,-0.001,-0.001,0.0,0.0,0.0,0.039,0.66,-0.01,48.89,44.239,0.147,1198.732
4.827,14.377,2034.471,0.199,47.274,12.089,1.094,0.195,0.021,0.121,0.973,0.615,-0.011,0.039,-2175.21,6106.054,2541.305,-0.533,-0.779,0.0,0.0,0.0,-0.053,0.0,0.0,0.0,0.0,0.372,0.029,12.862,0.005,-0.095,1.088,-0.015,0.0,0.0,0.0,0.0,0.0,-0.033,-0.075,-0.001,-0.001,0.0,0.0,0.0,0.039,0.63,-0.011,48.835,44.19,0.147,1196.038
4.844,15.161,2034.672,0.218,47.219,12.081,1.161,0.2,0.022,0.122,0.972,0.586,-0.012,0.039,-2166.75,6056.769,2590.785,-0.544,-0.831,0.0,0.0,0.0,-0.053,0.0,0.0,0.0,0.0,0.371,0.029,12.846,0.005,-0.094,1.084,-0.016,0.0,0.0,0.0,0.0,0.0,-0.033,-0.071,-0.001,-0.001,0.0,0.0,0.0,0.039,0.6,-0.012,48.781,44.14,0.147,1193.352
4.861,15.954,2034.874,0.238,47.163,12.072,1.229,0.205,0.022,0.122,0.971,0.559,-0.012,0.039,-2157.697,6005.926,2634.563,-0.55,-0.894,0.0,0.0,0.0,-0.053,0.0,0.0,0.0,0.0,0.37,0.029,12.827,0.006,-0.094,1.079,-0.017,0.0,0.0,0.0,0.0,0.0,-0.033,-0.068,-0.001,-0.001,0.0,0.0,0.0,0.039,0.573,-0.012,48.726,44.09,0.147,1190.67
4.877,16.732,2035.074,0.258,47.109,12.061,1.297,0.209,0.022,0.122,0.97,0.534,-0.013,0.039,-2149.466,5958.249,2675.921,-0.556,-0.951,0.0,0.0,0.0,-0.053,0.0,0.0,0.0,0.0,0.37,0.029,12.811,0.006,-0.094,1.074,-0.018,0.0,0.0,0.0,0.0,0.0,-0.033,-0.064,-0.001,-0.001,0.0,0.0,0.0,0.039,0.547,-0.012,48.672,44.041,0.146,1187.997
4.894,17.518,2035.275,0.281,47.054,12.049,1.366,0.213,0.023,0.122,0.969,0.51,-0.013,0.039,-2141.429,5911.748,2713.352,-0.567,-1.008,0.0,0.0,0.0,-0.053,0.0,0.0,0.0,0.0,0.369,0.029,12.795,0.006,-0.094,1.07,-0.019,0.0,0.0,0.0,0.0,0.0,-0.033,-0.061,-0.001,-0.001,0.0,0.0,0.0,0.039,0.522,-0.013,48.618,43.991,0.146,1185.336
4.91,18.299,2035.475,0.304,46.999,12.036,1.436,0.217,0.023,0.122,0.968,0.487,-0.014,0.039,-2132.619,5863.214,2744.93,-0.573,-1.071,0.0,0.0,0.0,-0.053,0.0,0.0,0.0,0.0,0.368,0.029,12.773,0.007,-0.094,1.065,-0.02,0.0,0.0,0.0,0.0,0.0,-0.033,-0.058,-0.001,-0.001,0.0,0.0,0.0,0.039,0.498,-0.014,48.564,43.942,0.146,1182.674
4.927,19.088,2035.677,0.329,46.944,12.022,1.508,0.221,0.023,0.123,0.967,0.465,-0.014,0.039,-2125.533,5820.61,2777.569,-0.579,-1.129,0.0,0.0,0.0,-0.053,0.0,0.0,0.0,0.0,0.368,0.029,12.76,0.007,-0.094,1.061,-0.022,0.0,0.0,0.0,0.0,0.0,-0.033,-0.056,-0.001,-0.001,0.0,0.0,0.0,0.039,0.476,-0.014,48.51,43.892,0.146,1180.007
4.944,19.867,2035.876,0.354,46.89,12.007,1.58,0.225,0.024,0.123,0.966,0.444,-0.015,0.039,-2117.641,5775.715,2805.838,-0.59,-1.192,0.0,0.0,0.0,-0.053,0.0,0.0,0.0,0.0,0.367,0.029,12.741,0.007,-0.093,1.056,-0.023,0.0,0.0,0.0,0.0,0.0,-0.033,-0.053,-0.001,-0.0,0.0,0.0,0.0,0.039,0.455,-0.015,48.456,43.843,0.146,1177.349
4.961,20.649,2036.077,0.381,46.836,11.99,1.653,0.228,0.024,0.123,0.966,0.425,-0.016,0.039,-2109.318,5729.967,2830.08,-0.596,-1.255,0.0,0.0,0.0,-0.053,0.0,0.0,0.0,0.0,0.366,0.029,12.72,0.008,-0.093,1.051,-0.024,0.0,0.0,0.0,0.0,0.0,-0.033,-0.05,-0.002,-0.0,0.0,0.0,0.0,0.039,0.434,-0.015,48.402,43.794,0.146,1174.701
4.977,21.431,2036.277,0.41,46.782,11.972,1.726,0.232,0.024,0.123,0.965,0.406,-0.016,0.039,-2102.719,5690.283,2854.961,-0.602,-1.312,0.0,0.0,0.0,-0.053,0.0,0.0,0.0,0.0,0.366,0.029,12.706,0.008,-0.093,1.047,-0.025,0.0,0.0,0.0,0.0,0.0,-0.033,-0.048,-0.002,-0.0,0.0,0.0,0.0,0.039,0.415,-0.016,48.348,43.744,0.146,1172.051
4.994,22.212,2036.477,0.439,46.728,11.954,1.8,0.235,0.024,0.123,0.964,0.388,-0.017,0.039,-2095.486,5648.87,2876.504,-0.613,-1.369,0.0,0.0,0.0,-0.053,0.0,0.0,0.0,0.0,0.365,0.029,12.689,0.008,-0.093,1.043,-0.026,0.0,0.0,0.0,0.0,0.0,-0.033,-0.045,-0.002,-0.0,0.0,0.0,0.0,0.039,0.397,-0.016,48.293,43.695,0.145,1169.408
5.011,22.987,2036.675,0.469,46.675,11.934,1.874,0.238,0.024,0.124,0.963,0.372,-0.017,0.039,-2088.947,5610.338,2896.052,-0.619,-1.438,0.0,0.0,0.0,-0.053,0.0,0.0,0.0,0.0,0.364,0.029,12.674,0.009,-0.092,1.039,-0.027,0.0,0.0,0.0,0.0,0.0,-0.033,-0.043,-0.002,-0.0,0.0,0.0,0.0,0.039,0.38,-0.017,48.24,43.646,0.145,1166.781
5.027,23.766,2036.874,0.501,46.621,11.914,1.949,0.241,0.025,0.124,0.962,0.356,-0.018,0.039,-2081.302,5568.668,2911.466,-0.625,-1.501,0.0,0.0,0.0,-0.053,0.0,0.0,0.0,0.0,0.363,0.029,12.653,0.009,-0.092,1.034,-0.028,0.0,0.0,0.0,0.0,0.0,-0.033,-0.041,-0.002,-0.0,0.0,0.0,0.0,0.039,0.364,-0.018,48.186,43.597,0.145,1164.159
5.044,24.54,2037.072,0.534,46.568,11.892,2.023,0.244,0.025,0.124,0.962,0.34,-0.019,0.04,-2074.339,5529.961,2924.825,-0.636,-1.57,0.0,0.0,0.0,-0.053,0.0,0.0,0.0,0.0,0.362,0.029,12.634,0.01,-0.092,1.029,-0.03,0.0,0.0,0.0,0.0,0.0,-0.033,-0.039,-0.002,-0.0,0.0,0.0,0.0,0.04,0.348,-0.018,48.132,43.548,0.145,1161.54
5.061,25.317,2037.27,0.569,46.515,11.869,2.099,0.246,0.025,0.124,0.961,0.326,-0.02,0.04,-2068.098,5493.837,2938.774,-0.642,-1.633,0.0,0.0,0.0,-0.053,0.0,0.0,0.0,0.0,0.362,0.029,12.619,0.01,-0.092,1.025,-0.031,0.0,0.0,0.0,0.0,0.0,-0.033,-0.037,-0.002,0.0,0.0,0.0,0.0,0.04,0.333,-0.019,48.078,43.499,0.145,1158.927
5.077,26.093,2037.468,0.604,46.462,11.846,2.175,0.249,0.025,0.124,0.96,0.312,-0.02,0.04,-2061.829,5458.041,2950.73,-0.647,-1.696,0.0,0.0,0.0,-0.053,0.0,0.0,0.0,0.0,0.361,0.029,12.603,0.01,-0.092,1.021,-0.032,0.0,0.0,0.0,0.0,0.0,-0.033,-0.035,-0.002,0.0,0.0,0.0,0.0,0.04,0.319,-0.02,48.025,43.45,0.144,1156.316
5.094,26.864,2037.664,0.641,46.41,11.822,2.25,0.252,0.025,0.125,0.96,0.3,-0.021,0.04,-2055.627,5422.956,2961.022,-0.653,-1.759,0.0,0.0,0.0,-0.053,0.0,0.0,0.0,0.0,0.36,0.029,12.586,0.011,-0.092,1.017,-0.033,0.0,0.0,0.0,0.0,0.0,-0.033,-0.034,-0.002,0.0,0.0,0.0,0.0,0.04,0.306,-0.021,47.971,43.401,0.144,1153.716
5.111,27.638,2037.862,0.679,46.357,11.796,2.327,0.254,0.025,0.125,0.959,0.287,-0.022,0.04,-2049.585,5388.837,2970.141,-0.659,-1.828,0.0,0.0,0.0,-0.053,0.0,0.0,0.0,0.0,0.36,0.029,12.57,0.011,-0.091,1.013,-0.034,0.0,0.0,0.0,0.0,0.0,-0.033,-0.032,-0.002,0.0,0.0,0.0,0.0,0.04,0.293,-0.021,47.918,43.352,0.144,1151.124
5.127,28.408,2038.057,0.719,46.305,11.77,2.403,0.256,0.025,0.125,0.958,0.276,-0.022,0.04,-2043.547,5355.258,2977.391,-0.67,-1.896,0.0,0.0,0.0,-0.053,0.0,0.0,0.0,0.0,0.359,0.029,12.554,0.012,-0.091,1.009,-0.036,0.0,0.0,0.0,0.0,0.0,-0.033,-0.03,-0.002,0.0,0.0,0.0,0.0,0.04,0.281,-0.022,47.864,43.303,0.144,1148.537
5.144,29.185,2038.255,0.76,46.252,11.743,2.48,0.258,0.025,0.125,0.958,0.265,-0.023,0.04,-2038.336,5324.533,2985.609,-0.676,-1.96,0.0,0.0,0.0,-0.053,0.0,0.0,0.0,0.0,0.359,0.029,12.542,0.012,-0.091,1.005,-0.037,0.0,0.0,0.0,0.0,0.0,-0.033,-0.029,-0.002,0.0,0.0,0.0,0.0,0.04,0.27,-0.023,47.811,43.254,0.144,1145.95
5.161,29.957,2038.451,0.802,46.2,11.715,2.557,0.26,0.025,0.125,0.957,0.254,-0.024,0.04,-2033.066,5294.139,2991.731,-0.676,-2.023,0.0,0.0,0.0,-0.053,0.0,0.0,0.0,0.0,0.358,0.029,12.528,0.012,-0.09,1.001,-0.038,0.0,0.0,0.0,0.0,0.0,-0.033,-0.027,-0.002,0.0,0.0,0.0,0.0,0.04,0.259,-0.024,47.757,43.206,0.144,1143.363
5.177,30.728,2038.646,0.845,46.148,11.687,2.634,0.262,0.025,0.126,0.956,0.244,-0.025,0.04,-2028.021,5264.986,2996.862,-0.682,-2.091,0.0,0.0,0.0,-0.053,0.0,0.0,0.0,0.0,0.358,0.029,12.516,0.013,-0.09,0.997,-0.039,0.0,0.0,0.0,0.0,0.0,-0.033,-0.026,-0.002,0.0,0.0,0.0,0.0,0.04,0.249,-0.024,47.704,43.157,0.144,1140.792
5.194,31.498,2038.841,0.89,46.096,11.658,2.711,0.264,0.025,0.126,0.956,0.235,-0.026,0.04,-2023.079,5236.658,3000.64,-0.688,-2.16,0.0,0.0,0.0,-0.053,0.0,0.0,0.0,0.0,0.357,0.029,12.503,0.013,-0.09,0.994,-0.04,0.0,0.0,0.0,0.0,0.0,-0.033,-0.024,-0.003,0.0,0.0,0.0,0.0,0.04,0.24,-0.025,47.651,43.108,0.143,1138.227
5.211,32.259,2039.033,0.935,46.045,11.628,2.787,0.266,0.025,0.126,0.955,0.226,-0.027,0.04,-2018.271,5209.341,3003.083,-0.693,-2.229,0.0,0.0,0.0,-0.053,0.0,0.0,0.0,0.0,0.357,0.028,12.491,0.014,-0.09,0.99,-0.041,0.0,0.0,0.0,0.0,0.0,-0.033,-0.023,-0.003,0.0,0.0,0.0,0.0,0.04,0.231,-0.026,47.598,43.06,0.143,1135.684
5.227,33.022,2039.226,0.982,45.993,11.598,2.864,0.268,0.025,0.126,0.955,0.218,-0.028,0.041,-2014.352,5184.719,3008.214,-0.699,-2.286,0.0,0.0,0.0,-0.053,0.0,0.0,0.0,0.0,0.356,0.028,12.484,0.014,-0.09,0.987,-0.042,0.0,0.0,0.0,0.0,0.0,-0.033,-0.022,-0.003,0.0,0.0,0.0,0.0,0.041,0.222,-0.027,47.546,43.012,0.143,1133.158
5.244,33.795,2039.42,1.031,45.941,11.566,2.942,0.27,0.025,0.126,0.954,0.21,-0.028,0.041,-2010.452,5160.581,3011.808,-0.699,-2.349,0.0,0.0,0.0,-0.053,0.0,0.0,0.0,0.0,0.356,0.028,12.476,0.015,-0.089,0.984,-0.044,0.0,0.0,0.0,0.0,0.0,-0.033,-0.021,-0.003,0.0,0.0,0.0,0.0,0.041,0.214,-0.028,47.493,42.964,0.143,1130.617
5.261,34.557,2039.612,1.08,45.89,11.535,3.019,0.272,0.025,0.127,0.954,0.202,-0.029,0.041,-2007.134,5138.738,3015.074,-0.705,-2.412,0.0,0.0,0.0,-0.053,0.0,0.0,0.0,0.0,0.356,0.028,12.471,0.015,-0.089,0.981,-0.045,0.0,0.0,0.0,0.0,0.0,-0.033,-0.02,-0.003,0.0,0.0,0.0,0.0,0.041,0.206,-0.029,47.44,42.916,0.143,1128.079
5.277,35.318,2039.803,1.131,45.839,11.502,3.096,0.273,0.025,0.127,0.953,0.196,-0.03,0.041,-2002.777,5113.976,3015.814,-0.705,-2.475,0.0,0.0,0.0,-0.053,0.0,0.0,0.0,0.0,0.355,0.028,12.461,0.015,-0.089,0.978,-0.046,0.0,0.0,0.0,0.0,0.0,-0.033,-0.019,-0.003,0.0,0.0,0.0,0.0,0.041,0.199,-0.03,47.387,42.868,0.143,1125.564
5.294,36.083,2039.995,1.183,45.787,11.47,3.173,0.275,0.025,0.127,0.953,0.189,-0.031,0.041,-1999.141,5091.858,3016.898,-0.71,-2.538,0.0,0.0,0.0,-0.053,0.0,0.0,0.0,0.0,0.355,0.028,12.454,0.016,-0.088,0.975,-0.047,0.0,0.0,0.0,0.0,0.0,-0.033,-0.018,-0.003,0.0,0.0,0.0,0.0,0.041,0.192,-0.031,47.335,42.82,0.142,1123.053
5.311,36.852,2040.188,1.237,45.736,11.436,3.251,0.276,0.024,0.127,0.952,0.182,-0.032,0.041,-1995.359,5069.375,3017.52,-0.71,-2.607,0.0,0.0,0.0,-0.053,0.0,0.0,0.0,0.0,0.355,0.028,12.446,0.016,-0.088,0.972,-0.048,0.0,0.0,0.0,0.0,0.0,-0.033,-0.017,-0.003,0.0,0.0,0.0,0.0,0.041,0.186,-0.032,47.282,42.772,0.142,1120.532
5.327,37.611,2040.377,1.292,45.685,11.402,3.328,0.278,0.024,0.127,0.952,0.176,-0.033,0.041,-1993.05,5051.678,3020.541,-0.71,-2.664,0.0,0.0,0.0,-0.053,0.0,0.0,0.0,0.0,0.355,0.028,12.446,0.017,-0.088,0.97,-0.049,0.0,0.0,0.0,0.0,0.0,-0.033,-0.016,-0.003,0.0,0.0,0.0,0.0,0.041,0.179,-0.033,47.23,42.724,0.142,1118.026
5.344,38.373,2040.567,1.348,45.634,11.368,3.406,0.279,0.024,0.128,0.951,0.171,-0.034,0.042,-1990.282,5032.726,3022.524,-0.716,-2.722,0.0,0.0,0.0,-0.053,0.0,0.0,0.0,0.0,0.355,0.028,12.443,0.017,-0.088,0.967,-0.05,0.0,0.0,0.0,0.0,0.0,-0.033,-0.015,-0.003,0.0,0.0,0.0,0.0,0.042,0.174,-0.034,47.178,42.676,0.142,1115.536
5.361,39.135,2040.757,1.406,45.583,11.333,3.484,0.28,0.024,0.128,0.951,0.166,-0.035,0.042,-1988.125,5016.04,3024.527,-0.716,-2.785,0.0,0.0,0.0,-0.053,0.0,0.0,0.0,0.0,0.355,0.028,12.443,0.017,-0.087,0.965,-0.051,0.0,0.0,0.0,0.0,0.0,-0.033,-0.014,-0.003,0.0,0.0,0.0,0.0,0.042,0.168,-0.035,47.125,42.629,0.142,1113.049
5.377,39.891,2040.944,1.464,45.532,11.298,3.561,0.282,0.024,0.128,0.951,0.16,-0.036,0.042,-1985.367,4997.74,3024.942,-0.716,-2.842,0.0,0.0,0.0,-0.053,0.0,0.0,0.0,0.0,0.355,0.028,12.44,0.018,-0.087,0.963,-0.052,0.0,0.0,0.0,0.0,0.0,-0.033,-0.014,-0.003,0.0,0.0,0.0,0.0,0.042,0.163,-0.036,47.074,42.582,0.142,1110.574
5.394,40.651,2041.133,1.524,45.481,11.262,3.639,0.283,0.023,0.128,0.95,0.156,-0.037,0.042,-1982.861,4980.712,3024.626,-0.716,-2.905,0.0,0.0,0.0,-0.053,0.0,0.0,0.0,0.0,0.354,0.028,12.438,0.018,-0.087,0.96,-0.053,0.0,0.0,0.0,0.0,0.0,-0.033,-0.013,-0.003,0.0,0.0,0.0,0.0,0.042,0.158,-0.037,47.022,42.534,0.142,1108.108
5.411,41.406,2041.32,1.585,45.43,11.226,3.716,0.284,0.023,0.128,0.95,0.151,-0.038,0.042,-1980.256,4963.527,3023.966,-0.716,-2.968,0.0,0.0,0.0,-0.053,0.0,0.0,0.0,0.0,0.354,0.028,12.436,0.018,-0.086,0.958,-0.054,0.0,0.0,0.0,0.0,0.0,-0.033,-0.012,-0.004,0.0,0.0,0.0,0.0,0.042,0.154,-0.038,46.97,42.487,0.141,1105.652
5.427,42.169,2041.508,1.648,45.379,11.189,3.794,0.286,0.023,0.129,0.949,0.147,-0.039,0.042,-1977.682,4946.459,3023.478,-0.716,-3.031,0.0,0.0,0.0,-0.053,0.0,0.0,0.0,0.0,0.354,0.028,12.434,0.019,-0.086,0.956,-0.055,0.0,0.0,0.0,0.0,0.0,-0.033,-0.011,-0.004,0.0,0.0,0.0,0.0,0.042,0.149,-0.039,46.918,42.44,0.141,1103.194
5.444,42.917,2041.692,1.711,45.329,11.152,3.871,0.287,0.023,0.129,0.949,0.143,-0.04,0.042,-1975.158,4930.236,3021.547,-0.716,-3.1,0.0,0.0,0.0,-0.053,0.0,0.0,0.0,0.0,0.354,0.028,12.431,0.019,-0.086,0.953,-0.056,0.0,0.0,0.0,0.0,0.0,-0.033,-0.011,-0.004,0.0,0.0,0.0,0.0,0.042,0.145,-0.04,46.867,42.393,0.141,1100.754
5.461,43.674,2041.878,1.777,45.279,11.115,3.948,0.288,0.022,0.129,0.949,0.14,-0.042,0.042,-1974.252,4918.463,3024.197,-0.716,-3.151,0.0,0.0,0.0,-0.053,0.0,0.0,0.0,0.0,0.354,0.028,12.438,0.02,-0.086,0.952,-0.057,0.0,0.0,0.0,0.0,0.0,-0.033,-0.01,-0.004,0.0,0.0,0.0,0.0,0.042,0.141,-0.041,46.815,42.346,0.141,1098.329
5.477,44.429,2042.063,1.843,45.228,11.077,4.026,0.289,0.022,0.129,0.948,0.136,-0.043,0.042,-1973.092,4905.96,3026.065,-0.71,-3.209,0.0,0.0,0.0,-0.053,0.0,0.0,0.0,0.0,0.355,0.028,12.443,0.02,-0.085,0.95,-0.058,0.0,0.0,0.0,0.0,0.0,-0.033,-0.01,-0.004,0.0,0.0,0.0,0.0,0.042,0.138,-0.042,46.764,42.299,0.141,1095.897
5.494,45.18,2042.247,1.911,45.178,11.039,4.103,0.29,0.022,0.129,0.948,0.133,-0.044,0.042,-1971.333,4891.871,3026.337,-0.71,-3.26,0.0,0.0,0.0,-0.053,0.0,0.0,0.0,0.0,0.355,0.028,12.445,0.02,-0.085,0.948,-0.059,0.0,0.0,0.0,0.0,0.0,-0.033,-0.009,-0.004,0.0,0.0,0.0,0.0,0.042,0.134,-0.043,46.713,42.252,0.14,1093.48
5.51,45.929,2042.43,1.98,45.127,11.001,4.181,0.291,0.022,0.13,0.948,0.13,-0.045,0.042,-1970.399,4880.638,3027.417,-0.71,-3.317,0.0,0.0,0.0,-0.053,0.0,0.0,0.0,0.0,0.355,0.028,12.451,0.021,-0.085,0.947,-0.06,0.0,0.0,0.0,0.0,0.0,-0.033,-0.008,-0.004,0.0,0.0,0.0,0.0,0.042,0.131,-0.044,46.662,42.206,0.14,1091.08
5.527,46.692,2042.615,2.051,45.076,10.962,4.259,0.292,0.021,0.13,0.947,0.127,-0.046,0.043,-1969.37,4869.052,3028.283,-0.705,-3.375,0.0,0.0,0.0,-0.053,0.0,0.0,0.0,0.0,0.355,0.028,12.457,0.021,-0.084,0.945,-0.06,0.0,0.0,0.0,0.0,0.0,-0.033,-0.008,-0.004,0.0,0.0,0.0,0.0,0.043,0.128,-0.046,46.611,42.159,0.14,1088.666
5.544,47.435,2042.796,2.122,45.026,10.923,4.336,0.294,0.021,0.13,0.947,0.124,-0.047,0.043,-1967.509,4855.364,3026.785,-0.705,-3.438,0.0,0.0,0.0,-0.053,0.0,0.0,0.0,0.0,0.355,0.028,12.458,0.022,-0.084,0.944,-0.062,0.0,0.0,0.0,0.0,0.0,-0.033,-0.007,-0.004,-0.0,0.0,0.0,0.0,0.043,0.125,-0.047,46.56,42.113,0.14,1086.267
5.561,48.186,2042.978,2.195,44.976,10.884,4.414,0.294,0.021,0.13,0.946,0.121,-0.048,0.043,-1966.758,4845.278,3027.041,-0.705,-3.495,0.0,0.0,0.0,-0.053,0.0,0.0,0.0,0.0,0.356,0.028,12.465,0.022,-0.084,0.942,-0.062,0.0,0.0,0.0,0.0,0.0,-0.033,-0.007,-0.004,-0.0,0.0,0.0,0.0,0.043,0.123,-0.048,46.509,42.067,0.14,1083.892
5.577,48.937,2043.16,2.269,44.925,10.844,4.492,0.296,0.02,0.13,0.946,0.119,-0.05,0.043,-1965.219,4833.098,3025.13,-0.705,-3.558,0.0,0.0,0.0,-0.053,0.0,0.0,0.0,0.0,0.356,0.028,12.467,0.022,-0.083,0.94,-0.063,0.0,0.0,0.0,0.0,0.0,-0.033,-0.006,-0.004,-0.0,0.0,0.0,0.0,0.043,0.12,-0.049,46.459,42.021,0.14,1081.51
5.594,49.687,2043.34,2.345,44.875,10.805,4.57,0.296,0.02,0.131,0.946,0.117,-0.051,0.043,-1965.092,4824.658,3027.061,-0.699,-3.604,0.0,0.0,0.0,-0.053,0.0,0.0,0.0,0.0,0.356,0.028,12.477,0.022,-0.083,0.939,-0.064,0.0,0.0,0.0,0.0,0.0,-0.033,-0.006,-0.004,-0.0,0.0,0.0,0.0,0.043,0.118,-0.05,46.408,41.974,0.14,1079.136
5.611,50.431,2043.519,2.422,44.824,10.765,4.647,0.298,0.019,0.131,0.946,0.115,-0.052,0.043,-1964.874,4815.961,3028.739,-0.693,-3.655,0.0,0.0,0.0,-0.053,0.0,0.0,0.0,0.0,0.356,0.028,12.487,0.023,-0.083,0.938,-0.065,0.0,0.0,0.0,0.0,0.0,-0.033,-0.006,-0.004,-0.0,0.0,0.0,0.0,0.043,0.116,-0.052,46.358,41.928,0.14,1076.776
5.627,51.175,2043.698,2.499,44.774,10.725,4.724,0.298,0.019,0.131,0.945,0.113,-0.053,0.043,-1965.226,4808.75,3031.973,-0.688,-3.707,0.0,0.0,0.0,-0.053,0.0,0.0,0.0,0.0,0.357,0.029,12.5,0.023,-0.082,0.938,-0.066,0.0,0.0,0.0,0.0,0.0,-0.033,-0.005,-0.004,-0.0,0.0,0.0,0.0,0.043,0.114,-0.053,46.308,41.883,0.139,1074.432
5.644,51.922,2043.876,2.579,44.724,10.684,4.802,0.299,0.019,0.131,0.945,0.111,-0.054,0.043,-1964.95,4799.834,3033.536,-0.688,-3.759,0.0,0.0,0.0,-0.053,0.0,0.0,0.0,0.0,0.357,0.029,12.509,0.024,-0.082,0.937,-0.066,0.0,0.0,0.0,0.0,0.0,-0.033,-0.005,-0.004,-0.0,0.0,0.0,0.0,0.043,0.112,-0.054,46.258,41.837,0.139,1072.089
5.661,52.669,2044.055,2.66,44.673,10.644,4.88,0.3,0.018,0.131,0.945,0.109,-0.056,0.043,-1964.792,4791.846,3034.018,-0.682,-3.81,0.0,0.0,0.0,-0.053,0.0,0.0,0.0,0.0,0.358,0.029,12.519,0.024,-0.082,0.936,-0.067,0.0,0.0,0.0,0.0,0.0,-0.033,-0.005,-0.004,-0.001,0.0,0.0,0.0,0.043,0.11,-0.055,46.207,41.791,0.139,1069.747
5.677,53.419,2044.233,2.742,44.622,10.602,4.958,0.301,0.018,0.132,0.944,0.108,-0.057,0.044,-1964.547,4783.586,3034.272,-0.676,-3.862,0.0,0.0,0.0,-0.053,0.0,0.0,0.0,0.0,0.358,0.029,12.528,0.024,-0.081,0.935,-0.068,0.0,0.0,0.0,0.0,0.0,-0.033,-0.004,-0.004,-0.001,0.0,0.0,0.0,0.043,0.108,-0.056,46.157,41.746,0.139,1067.406
5.694,54.155,2044.408,2.825,44.573,10.562,5.036,0.302,0.017,0.132,0.944,0.106,-0.058,0.044,-1964.159,4775.016,3034.116,-0.676,-3.919,0.0,0.0,0.0,-0.053,0.0,0.0,0.0,0.0,0.358,0.029,12.537,0.024,-0.081,0.934,-0.069,0.0,0.0,0.0,0.0,0.0,-0.033,-0.004,-0.004,-0.001,0.0,0.0,0.0,0.044,0.107,-0.058,46.108,41.7,0.139,1065.089
5.711,54.899,2044.584,2.909,44.522,10.521,5.114,0.303,0.017,0.132,0.944,0.105,-0.06,0.044,-1963.934,4766.83,3034.538,-0.67,-3.971,0.0,0.0,0.0,-0.053,0.0,0.0,0.0,0.0,0.359,0.029,12.546,0.025,-0.081,0.932,-0.07,0.0,0.0,0.0,0.0,0.0,-0.033,-0.004,-0.004,-0.001,0.0,0.0,0.0,0.044,0.105,-0.059,46.058,41.655,0.139,1062.785
5.727,55.642,2044.759,2.995,44.472,10.479,5.192,0.304,0.016,0.132,0.943,0.103,-0.061,0.044,-1964.946,4761.719,3038.189,-0.665,-4.011,0.0,0.0,0.0,-0.053,0.0,0.0,0.0,0.0,0.36,0.029,12.562,0.025,-0.08,0.932,-0.07,0.0,0.0,0.0,0.0,0.0,-0.033,-0.003,-0.004,-0.001,0.0,0.0,0.0,0.044,0.104,-0.06,46.008,41.61,0.138,1060.477
5.744,56.38,2044.933,3.082,44.421,10.438,5.269,0.305,0.016,0.132,0.943,0.102,-0.062,0.044,-1965.855,4756.273,3041.542,-0.659,-4.057,0.0,0.0,0.0,-0.053,0.0,0.0,0.0,0.0,0.36,0.029,12.577,0.025,-0.08,0.932,-0.071,0.0,0.0,0.0,0.0,0.0,-0.033,-0.003,-0.005,-0.001,0.0,0.0,0.0,0.044,0.103,-0.061,45.959,41.565,0.138,1058.186
5.761,57.13,2045.109,3.172,44.37,10.396,5.348,0.306,0.015,0.133,0.943,0.101,-0.063,0.044,-1966.759,4750.678,3044.919,-0.653,-4.102,0.0,0.0,0.0,-0.053,0.0,0.0,0.0,0.0,0.361,0.029,12.592,0.026,-0.08,0.931,-0.072,0.0,0.0,0.0,0.0,0.0,-0.033,-0.003,-0.005,-0.001,0.0,0.0,0.0,0.044,0.102,-0.063,45.91,41.52,0.138,1055.89
5.777,57.862,2045.28,3.261,44.32,10.354,5.426,0.307,0.015,0.133,0.942,0.1,-0.065,0.044,-1967.851,4745.553,3048.665,-0.642,-4.148,0.0,0.0,0.0,-0.053,0.0,0.0,0.0,0.0,0.361,0.029,12.608,0.026,-0.079,0.931,-0.072,0.0,0.0,0.0,0.0,0.0,-0.033,-0.003,-0.005,-0.001,0.0,0.0,0.0,0.044,0.101,-0.064,45.86,41.475,0.138,1053.61
5.794,58.597,2045.451,3.352,44.27,10.313,5.504,0.308,0.014,0.133,0.942,0.099,-0.066,0.044,-1968.639,4739.564,3051.731,-0.636,-4.188,0.0,0.0,0.0,-0.053,0.0,0.0,0.0,0.0,0.362,0.029,12.622,0.026,-0.079,0.93,-0.073,0.0,0.0,0.0,0.0,0.0,-0.033,-0.002,-0.005,-0.001,0.0,0.0,0.0,0.044,0.1,-0.065,45.812,41.431,0.138,1051.356
5.811,59.34,2045.624,3.445,44.219,10.27,5.583,0.308,0.014,0.133,0.942,0.098,-0.067,0.044,-1969.258,4733.047,3054.311,-0.63,-4.234,0.0,0.0,0.0,-0.053,0.0,0.0,0.0,0.0,0.362,0.029,12.635,0.027,-0.079,0.93,-0.073,0.0,0.0,0.0,0.0,0.0,-0.033,-0.002,-0.005,-0.001,0.0,0.0,0.0,0.044,0.099,-0.067,45.763,41.386,0.138,1049.092
5.827,60.074,2045.794,3.538,44.169,10.228,5.661,0.309,0.013,0.133,0.942,0.098,-0.069,0.044,-1969.634,4725.943,3056.159,-0.625,-4.28,0.0,0.0,0.0,-0.053,0.0,0.0,0.0,0.0,0.363,0.029,12.647,0.027,-0.078,0.929,-0.074,0.0,0.0,0.0,0.0,0.0,-0.033,-0.002,-0.005,-0.002,0.0,0.0,0.0,0.044,0.098,-0.068,45.714,41.342,0.138,1046.836
5.844,60.811,2045.965,3.633,44.118,10.186,5.739,0.31,0.013,0.134,0.941,0.097,-0.07,0.044,-1970.428,4720.54,3057.87,-0.619,-4.332,0.0,0.0,0.0,-0.053,0.0,0.0,0.0,0.0,0.364,0.029,12.661,0.027,-0.078,0.929,-0.075,0.0,0.0,0.0,0.0,0.0,-0.033,-0.002,-0.005,-0.002,0.0,0.0,0.0,0.044,0.097,-0.069,45.665,41.297,0.137,1044.595
5.86,61.538,2046.132,3.728,44.068,10.144,5.817,0.311,0.012,0.134,0.941,0.096,-0.071,0.044,-1971.044,4714.693,3059.056,-0.619,-4.377,0.0,0.0,0.0,-0.053,0.0,0.0,0.0,0.0,0.364,0.029,12.674,0.027,-0.078,0.928,-0.075,0.0,0.0,0.0,0.0,0.0,-0.033,-0.002,-0.005,-0.002,0.0,0.0,0.0,0.044,0.097,-0.071,45.617,41.253,0.137,1042.372
5.877,62.274,2046.302,3.826,44.018,10.101,5.896,0.312,0.012,0.134,0.941,0.096,-0.072,0.044,-1968.689,4699.955,3055.28,-0.619,-4.412,0.0,0.0,0.0,-0.053,0.0,0.0,0.0,0.0,0.364,0.029,12.67,0.028,-0.078,0.926,-0.076,0.0,0.0,0.0,0.0,0.0,-0.033,-0.002,-0.005,-0.002,0.0,0.0,0.0,0.044,0.096,-0.072,45.569,41.209,0.137,1040.157
5.894,63.009,2046.47,3.925,43.967,10.058,5.974,0.312,0.011,0.134,0.94,0.095,-0.074,0.044,-1970.489,4696.217,3060.826,-0.607,-4.446,0.0,0.0,0.0,-0.053,0.0,0.0,0.0,0.0,0.365,0.029,12.69,0.028,-0.077,0.926,-0.076,0.0,0.0,0.0,0.0,0.0,-0.033,-0.001,-0.005,-0.002,0.0,0.0,0.0,0.044,0.095,-0.073,45.521,41.165,0.137,1037.936
5.911,63.742,2046.637,4.026,43.916,10.014,6.053,0.313,0.01,0.134,0.94,0.095,-0.075,0.044,-1967.922,4681.052,3056.371,-0.613,-4.481,0.0,0.0,0.0,-0.053,0.0,0.0,0.0,0.0,0.365,0.029,12.686,0.028,-0.077,0.923,-0.077,0.0,0.0,0.0,0.0,0.0,-0.033,-0.001,-0.005,-0.002,0.0,0.0,0.0,0.044,0.095,-0.074,45.473,41.122,0.137,1035.725
5.927,64.471,2046.803,4.127,43.866,9.97,6.13,0.314,0.01,0.134,0.94,0.094,-0.076,0.044,-1964.879,4664.959,3050.62,-0.613,-4.515,0.0,0.0,0.0,-0.053,0.0,0.0,0.0,0.0,0.364,0.029,12.679,0.028,-0.077,0.921,-0.077,0.0,0.0,0.0,0.0,0.0,-0.033,-0.001,-0.005,-0.002,0.0,0.0,0.0,0.044,0.094,-0.076,45.425,41.078,0.137,1033.527
5.944,65.203,2046.969,4.23,43.816,9.926,6.209,0.315,0.009,0.134,0.94,0.094,-0.078,0.044,-1962.545,4650.705,3046.779,-0.613,-4.549,0.0,0.0,0.0,-0.053,0.0,0.0,0.0,0.0,0.364,0.029,12.676,0.029,-0.076,0.918,-0.078,0.0,0.0,0.0,0.0,0.0,-0.033,-0.001,-0.005,-0.002,0.0,0.0,0.0,0.044,0.094,-0.077,45.377,41.034,0.136,1031.338
5.961,65.934,2047.135,4.334,43.765,9.881,6.287,0.316,0.009,0.134,0.939,0.094,-0.079,0.044,-1960.165,4636.472,3042.757,-0.613,-4.589,0.0,0.0,0.0,-0.053,0.0,0.0,0.0,0.0,0.364,0.029,12.674,0.029,-0.076,0.916,-0.078,0.0,0.0,0.0,0.0,0.0,-0.033,-0.001,-0.005,-0.002,0.0,0.0,0.0,0.044,0.094,-0.078,45.329,40.991,0.136,1029.154
5.977,66.661,2047.298,4.439,43.715,9.837,6.365,0.316,0.008,0.134,0.939,0.093,-0.08,0.044,-1957.806,4622.415,3038.774,-0.619,-4.624,0.0,0.0,0.0,-0.053,0.0,0.0,0.0,0.0,0.364,0.029,12.671,0.029,-0.076,0.914,-0.078,0.0,0.0,0.0,0.0,0.0,-0.033,-0.001,-0.005,-0.002,0.0,0.0,0.0,0.044,0.093,-0.08,45.282,40.948,0.136,1026.984
5.994,67.386,2047.461,4.545,43.666,9.792,6.442,0.317,0.008,0.135,0.939,0.093,-0.082,0.044,-1955.075,4607.672,3033.806,-0.619,-4.658,0.0,0.0,0.0,-0.053,0.0,0.0,0.0,0.0,0.364,0.029,12.666,0.029,-0.076,0.912,-0.079,0.0,0.0,0.0,0.0,0.0,-0.033,-0.001,-0.005,-0.002,0.0,0.0,0.0,0.044,0.093,-0.081,45.235,40.905,0.136,1024.832
6.011,68.119,2047.626,4.654,43.615,9.746,6.52,0.318,0.007,0.135,0.938,0.093,-0.083,0.044,-1952.937,4594.403,3030.407,-0.619,-4.698,0.0,0.0,0.0,-0.053,0.0,0.0,0.0,0.0,0.364,0.029,12.665,0.03,-0.076,0.91,-0.079,0.0,0.0,0.0,0.0,0.0,-0.033,-0.0,-0.005,-0.002,0.0,0.0,0.0,0.044,0.093,-0.082,45.188,40.862,0.136,1022.676
6.027,68.847,2047.788,4.764,43.565,9.7,6.598,0.319,0.006,0.135,0.938,0.093,-0.084,0.044,-1952.251,4584.666,3030.655,-0.619,-4.721,0.0,0.0,0.0,-0.053,0.0,0.0,0.0,0.0,0.364,0.029,12.671,0.03,-0.075,0.908,-0.08,0.0,0.0,0.0,0.0,0.0,-0.033,-0.0,-0.005,-0.002,0.0,0.0,0.0,0.044,0.093,-0.084,45.14,40.819,0.136,1020.521
6.044,69.57,2047.948,4.874,43.515,9.654,6.676,0.32,0.005,0.135,0.938,0.092,-0.086,0.044,-1951.636,4575.138,3031.068,-0.613,-4.75,0.0,0.0,0.0,-0.053,0.0,0.0,0.0,0.0,0.364,0.029,12.678,0.03,-0.075,0.907,-0.08,0.0,0.0,0.0,0.0,0.0,-0.033,-0.0,-0.005,-0.002,0.0,0.0,0.0,0.044,0.092,-0.085,45.093,40.776,0.136,1018.388
6.06,70.292,2048.108,4.986,43.465,9.608,6.753,0.32,0.005,0.135,0.938,0.092,-0.087,0.044,-1951.105,4565.816,3031.686,-0.613,-4.778,0.0,0.0,0.0,-0.053,0.0,0.0,0.0,0.0,0.365,0.029,12.685,0.03,-0.075,0.906,-0.08,0.0,0.0,0.0,0.0,0.0,-0.033,-0.0,-0.005,-0.002,0.0,0.0,0.0,0.044,0.092,-0.086,45.047,40.734,0.136,1016.274
6.077,71.022,2048.269,5.1,43.415,9.56,6.831,0.321,0.004,0.135,0.937,0.092,-0.088,0.044,-1950.048,4555.325,3030.877,-0.607,-4.807,0.0,0.0,0.0,-0.053,0.0,0.0,0.0,0.0,0.365,0.029,12.69,0.03,-0.074,0.905,-0.081,0.0,0.0,0.0,0.0,0.0,-0.033,-0.0,-0.005,-0.002,0.0,0.0,0.0,0.044,0.092,-0.088,45.0,40.691,0.135,1014.155
6.094,71.746,2048.429,5.214,43.365,9.514,6.909,0.322,0.003,0.135,0.937,0.092,-0.09,0.044,-1949.336,4545.659,3030.896,-0.607,-4.836,0.0,0.0,0.0,-0.053,0.0,0.0,0.0,0.0,0.365,0.029,12.696,0.03,-0.074,0.903,-0.081,0.0,0.0,0.0,0.0,0.0,-0.033,-0.0,-0.005,-0.002,0.0,0.0,0.0,0.044,0.092,-0.089,44.954,40.649,0.135,1012.038
6.11,72.461,2048.585,5.329,43.315,9.467,6.986,0.323,0.003,0.135,0.937,0.092,-0.091,0.044,-1948.697,4536.233,3031.077,-0.602,-4.859,0.0,0.0,0.0,-0.053,0.0,0.0,0.0,0.0,0.365,0.029,12.702,0.03,-0.074,0.902,-0.081,0.0,0.0,0.0,0.0,0.0,-0.033,-0.0,-0.005,-0.002,0.0,0.0,0.0,0.044,0.092,-0.09,44.908,40.607,0.135,1009.949
6.127,73.184,2048.743,5.446,43.265,9.419,7.064,0.324,0.002,0.135,0.936,0.092,-0.092,0.044,-1948.242,4527.204,3031.784,-0.602,-4.887,0.0,0.0,0.0,-0.053,0.0,0.0,0.0,0.0,0.366,0.029,12.71,0.031,-0.074,0.901,-0.082,0.0,0.0,0.0,0.0,0.0,-0.033,0.0,-0.005,-0.002,0.0,0.0,0.0,0.044,0.092,-0.092,44.862,40.565,0.135,1007.867
6.144,73.902,2048.899,5.564,43.215,9.372,7.142,0.324,0.001,0.136,0.936,0.092,-0.094,0.044,-1947.577,4517.752,3031.828,-0.596,-4.916,0.0,0.0,0.0,-0.053,0.0,0.0,0.0,0.0,0.366,0.029,12.716,0.031,-0.074,0.9,-0.082,0.0,0.0,0.0,0.0,0.0,-0.033,0.0,-0.005,-0.002,0.0,0.0,0.0,0.044,0.092,-0.093,44.816,40.523,0.135,1005.789
6.161,74.628,2049.056,5.685,43.165,9.324,7.22,0.325,0.0,0.136,0.936,0.092,-0.095,0.044,-1946.991,4508.435,3032.088,-0.596,-4.95,0.0,0.0,0.0,-0.053,0.0,0.0,0.0,0.0,0.366,0.029,12.723,0.031,-0.073,0.899,-0.082,0.0,0.0,0.0,0.0,0.0,-0.033,0.0,-0.005,-0.002,0.0,0.0,0.0,0.044,0.092,-0.094,44.77,40.481,0.135,1003.718
6.177,75.344,2049.21,5.805,43.115,9.276,7.297,0.326,-0.0,0.136,0.936,0.092,-0.096,0.044,-1947.827,4502.37,3035.793,-0.59,-4.968,0.0,0.0,0.0,-0.053,0.0,0.0,0.0,0.0,0.367,0.029,12.737,0.031,-0.073,0.898,-0.082,0.0,0.0,0.0,0.0,0.0,-0.033,0.0,-0.005,-0.002,0.0,0.0,0.0,0.044,0.092,-0.096,44.724,40.44,0.135,1001.656
6.194,76.068,2049.366,5.928,43.065,9.227,7.376,0.327,-0.001,0.136,0.935,0.092,-0.098,0.044,-1948.802,4496.506,3039.879,-0.584,-4.985,0.0,0.0,0.0,-0.053,0.0,0.0,0.0,0.0,0.367,0.029,12.752,0.031,-0.073,0.898,-0.082,0.0,0.0,0.0,0.0,0.0,-0.033,0.0,-0.005,-0.002,0.0,0.0,0.0,0.044,0.092,-0.097,44.679,40.398,0.134,999.603
6.211,76.782,2049.519,6.052,43.015,9.179,7.454,0.328,-0.002,0.136,0.935,0.092,-0.099,0.044,-1949.502,4490.002,3043.103,-0.579,-5.008,0.0,0.0,0.0,-0.053,0.0,0.0,0.0,0.0,0.368,0.029,12.765,0.032,-0.072,0.898,-0.083,0.0,0.0,0.0,0.0,0.0,-0.033,0.0,-0.005,-0.002,0.0,0.0,0.0,0.044,0.092,-0.098,44.633,40.357,0.134,997.558
6.227,77.496,2049.671,6.176,42.965,9.131,7.532,0.328,-0.003,0.136,0.935,0.092,-0.1,0.044,-1950.346,4483.76,3046.711,-0.573,-5.031,0.0,0.0,0.0,-0.053,0.0,0.0,0.0,0.0,0.368,0.029,12.778,0.032,-0.072,0.897,-0.083,0.0,0.0,0.0,0.0,0.0,-0.033,0.0,-0.005,-0.002,0.0,0.0,0.0,0.044,0.092,-0.1,44.588,40.316,0.134,995.534
6.244,78.217,2049.824,6.303,42.915,9.082,7.61,0.329,-0.004,0.136,0.934,0.092,-0.102,0.044,-1951.139,4477.312,3050.14,-0.567,-5.048,0.0,0.0,0.0,-0.053,0.0,0.0,0.0,0.0,0.369,0.029,12.792,0.032,-0.072,0.897,-0.083,0.0,0.0,0.0,0.0,0.0,-0.033,0.0,-0.005,-0.003,0.0,0.0,0.0,0.044,0.092,-0.101,44.543,40.275,0.134,993.508
6.26,78.925,2049.973,6.429,42.866,9.034,7.688,0.33,-0.004,0.136,0.934,0.092,-0.103,0.044,-1951.308,4468.619,3052.948,-0.561,-5.071,0.0,0.0,0.0,-0.053,0.0,0.0,0.0,0.0,0.369,0.029,12.801,0.032,-0.072,0.896,-0.083,0.0,0.0,0.0,0.0,0.0,-0.033,0.0,-0.005,-0.003,0.0,0.0,0.0,0.044,0.092,-0.102,44.499,40.234,0.134,991.499
